{"WR158": {"OBJECTID": 5674, "LOCATION": "LONG ST W", "SIDE_OF_STREET": "North", "BLOCKFACE": "LUDLOW ST - MARCONI BLVD", "METER_STATUS": "Operational", "TOW_AWAY_HOURS": null, "METER_TIME": 180, "HANDICAP": 0, "HOURS_OPERATION": "8 AM - 10 PM", "IN_SERVICE": 14, "VALET_HOURS": null, "RATE": " $2.25", "FOOD_SERVICE_HOURS": null, "TAXI_ZONE_HOURS": null, "CHARGING_STATION": "No", "CHARGING_STATION_STATUS": null, "LATITUDE": 39.96466786422601, "LONGITUDE": -83.00432116751891}, "WR110": {"OBJECTID": 5680, "LOCATION": "LONG ST W", "SIDE_OF_STREET": "North", "BLOCKFACE": "FRONT ST - LUDLOW ST", "METER_STATUS": "Bagged - Paid", "TOW_AWAY_HOURS": null, "METER_TIME": 180, "HANDICAP": 0, "HOURS_OPERATION": "8 AM - 10 PM", "IN_SERVICE": 14, "VALET_HOURS": null, "RATE": " $2.25", "FOOD_SERVICE_HOURS": null, "TAXI_ZONE_HOURS": null, "CHARGING_STATION": "No", "CHARGING_STATION_STATUS": null, "LATITUDE": 39.96475384379721, "LONGITUDE": -83.00361362998895}, "WR36": {"OBJECTID": 5685, "LOCATION": "LONG ST W", "SIDE_OF_STREET": "North", "BLOCKFACE": "FRONT ST - WALL ST", "METER_STATUS": "Operational", "TOW_AWAY_HOURS": null, "METER_TIME": 180, "HANDICAP": 0, "HOURS_OPERATION": "8 AM - 10 PM", "IN_SERVICE": 14, "VALET_HOURS": null, "RATE": " $2.25", "FOOD_SERVICE_HOURS": null, "TAXI_ZONE_HOURS": null, "CHARGING_STATION": "No", "CHARGING_STATION_STATUS": null, "LATITUDE": 39.96486384178017, "LONGITUDE": -83.00265245459778}, "ER2": {"OBJECTID": 5691, "LOCATION": "LONG ST E", "SIDE_OF_STREET": "North", "BLOCKFACE": "HIGH ST - PEARL ST", "METER_STATUS": "Operational", "TOW_AWAY_HOURS": null, "METER_TIME": 120, "HANDICAP": 1, "HOURS_OPERATION": "8 AM - 10 PM", "IN_SERVICE": 14, "VALET_HOURS": null, "RATE": " $1.50", "FOOD_SERVICE_HOURS": null, "TAXI_ZONE_HOURS": null, "CHARGING_STATION": "No", "CHARGING_STATION_STATUS": null, "LATITUDE": 39.96506543466655, "LONGITUDE": -83.00089171924478}, "NG16": {"OBJECTID": 6998, "LOCATION": "MARCONI BLVD", "SIDE_OF_STREET": "East", "BLOCKFACE": "BROAD ST - GAY ST", "METER_STATUS": "Meter & Post Removed", "TOW_AWAY_HOURS": null, "METER_TIME": 120, "HANDICAP": 0, "HOURS_OPERATION": "8 AM - 6 PM", "IN_SERVICE": 10, "VALET_HOURS": null, "RATE": " $1.50", "FOOD_SERVICE_HOURS": null, "TAXI_ZONE_HOURS": null, "CHARGING_STATION": "No", "CHARGING_STATION_STATUS": null, "LATITUDE": 39.96314453805908, "LONGITUDE": -83.00430426797794}, "ET462": {"OBJECTID": 7003, "LOCATION": "SPRING ST E", "SIDE_OF_STREET": "North", "BLOCKFACE": "GRANT AVE - SIXTH ST", "METER_STATUS": "Operational", "TOW_AWAY_HOURS": null, "METER_TIME": 720, "HANDICAP": 0, "HOURS_OPERATION": "6 AM - 10 PM", "IN_SERVICE": 16, "VALET_HOURS": null, "RATE": " $4.80", "FOOD_SERVICE_HOURS": null, "TAXI_ZONE_HOURS": null, "CHARGING_STATION": "No", "CHARGING_STATION_STATUS": null, "LATITUDE": 39.96723612090071, "LONGITUDE": -82.9922768456616}, "C743": {"OBJECTID": 7008, "LOCATION": "STATE ST W", "SIDE_OF_STREET": "South", "BLOCKFACE": "BELLE ST - STARLING ST", "METER_STATUS": "Operational", "TOW_AWAY_HOURS": "3AM - 7AM - 4PM - 6PM", "METER_TIME": 720, "HANDICAP": 0, "HOURS_OPERATION": "6 AM - 6 PM", "IN_SERVICE": 12, "VALET_HOURS": null, "RATE": " $4.80", "FOOD_SERVICE_HOURS": null, "TAXI_ZONE_HOURS": null, "CHARGING_STATION": "No", "CHARGING_STATION_STATUS": null, "LATITUDE": 39.959103743798934, "LONGITUDE": -83.00877686743469}, "C441": {"OBJECTID": 7014, "LOCATION": "STARLING ST S", "SIDE_OF_STREET": "West", "BLOCKFACE": "STATE ST - TOWN ST", "METER_STATUS": "Meter & Post Removed", "TOW_AWAY_HOURS": "3AM - 7AM - 4PM - 6PM", "METER_TIME": 720, "HANDICAP": 0, "HOURS_OPERATION": "6 AM - 6 PM", "IN_SERVICE": 9, "VALET_HOURS": null, "RATE": " $4.80", "FOOD_SERVICE_HOURS": null, "TAXI_ZONE_HOURS": null, "CHARGING_STATION": "No", "CHARGING_STATION_STATUS": null, "LATITUDE": 39.95843677176707, "LONGITUDE": -83.00991915405238}, "UW964": {"OBJECTID": 6706, "LOCATION": "NEIL AVE N", "SIDE_OF_STREET": "East", "BLOCKFACE": "ELEVENTH AVE - TENTH AVE", "METER_STATUS": "Operational", "TOW_AWAY_HOURS": null, "METER_TIME": 120, "HANDICAP": 0, "HOURS_OPERATION": "8 AM - 10 PM", "IN_SERVICE": 14, "VALET_HOURS": null, "RATE": " $1.50", "FOOD_SERVICE_HOURS": null, "TAXI_ZONE_HOURS": null, "CHARGING_STATION": "No", "CHARGING_STATION_STATUS": null, "LATITUDE": 39.99500956494561, "LONGITUDE": -83.01448558599559}, "EY551": {"OBJECTID": 6077, "LOCATION": "MT VERNON AVE E", "SIDE_OF_STREET": "South", "BLOCKFACE": "CLEVELAND AVE - KELLY AL", "METER_STATUS": "Operational", "TOW_AWAY_HOURS": null, "METER_TIME": 720, "HANDICAP": 0, "HOURS_OPERATION": "6 AM - 10 PM", "IN_SERVICE": 16, "VALET_HOURS": null, "RATE": " $4.80", "FOOD_SERVICE_HOURS": null, "TAXI_ZONE_HOURS": null, "CHARGING_STATION": "No", "CHARGING_STATION_STATUS": null, "LATITUDE": 39.96923327293011, "LONGITUDE": -82.99122929042544}, "EY405": {"OBJECTID": 6083, "LOCATION": "MT VERNON AVE E", "SIDE_OF_STREET": "South", "BLOCKFACE": "SIXTH ST - GRANT AVE", "METER_STATUS": "Operational", "TOW_AWAY_HOURS": null, "METER_TIME": 720, "HANDICAP": 0, "HOURS_OPERATION": "6 AM - 10 PM", "IN_SERVICE": 16, "VALET_HOURS": null, "RATE": " $4.80", "FOOD_SERVICE_HOURS": null, "TAXI_ZONE_HOURS": null, "CHARGING_STATION": "No", "CHARGING_STATION_STATUS": null, "LATITUDE": 39.969287185609986, "LONGITUDE": -82.99261435487335}, "C769": {"OBJECTID": 6094, "LOCATION": "STATE ST W", "SIDE_OF_STREET": "South", "BLOCKFACE": "BELLE ST - STARLING ST", "METER_STATUS": "Operational", "TOW_AWAY_HOURS": "3AM - 7AM - 4PM - 6PM", "METER_TIME": 720, "HANDICAP": 0, "HOURS_OPERATION": "6 AM - 6 PM", "IN_SERVICE": 12, "VALET_HOURS": null, "RATE": " $4.80", "FOOD_SERVICE_HOURS": null, "TAXI_ZONE_HOURS": null, "CHARGING_STATION": "No", "CHARGING_STATION_STATUS": null, "LATITUDE": 39.95898281239508, "LONGITUDE": -83.0097359822844}, "C404": {"OBJECTID": 6123, "LOCATION": "STARLING ST S", "SIDE_OF_STREET": "East", "BLOCKFACE": "BROAD ST - RUSH AL", "METER_STATUS": "Operational", "TOW_AWAY_HOURS": "3AM - 7AM - 4PM - 6PM", "METER_TIME": 720, "HANDICAP": 0, "HOURS_OPERATION": "6 AM - 6 PM", "IN_SERVICE": 12, "VALET_HOURS": null, "RATE": " $4.80", "FOOD_SERVICE_HOURS": null, "TAXI_ZONE_HOURS": null, "CHARGING_STATION": "No", "CHARGING_STATION_STATUS": null, "LATITUDE": 39.960206035566614, "LONGITUDE": -83.01012037673381}, "C414": {"OBJECTID": 6128, "LOCATION": "STARLING ST S", "SIDE_OF_STREET": "East", "BLOCKFACE": "RUSH AL - STATE ST", "METER_STATUS": "Operational", "TOW_AWAY_HOURS": "3AM - 7AM - 4PM - 6PM", "METER_TIME": 720, "HANDICAP": 0, "HOURS_OPERATION": "6 AM - 6 PM", "IN_SERVICE": 12, "VALET_HOURS": null, "RATE": " $4.80", "FOOD_SERVICE_HOURS": null, "TAXI_ZONE_HOURS": null, "CHARGING_STATION": "No", "CHARGING_STATION_STATUS": null, "LATITUDE": 39.95989366998183, "LONGITUDE": -83.01005868483696}, "C426": {"OBJECTID": 6134, "LOCATION": "STARLING ST S", "SIDE_OF_STREET": "East", "BLOCKFACE": "RUSH AL - STATE ST", "METER_STATUS": "Operational", "TOW_AWAY_HOURS": null, "METER_TIME": 720, "HANDICAP": 0, "HOURS_OPERATION": "6 AM - 6 PM", "IN_SERVICE": 12, "VALET_HOURS": null, "RATE": " $4.80", "FOOD_SERVICE_HOURS": null, "TAXI_ZONE_HOURS": null, "CHARGING_STATION": "No", "CHARGING_STATION_STATUS": null, "LATITUDE": 39.95935635306563, "LONGITUDE": -83.00994883015741}, "EE159": {"OBJECTID": 5204, "LOCATION": "MAIN ST E", "SIDE_OF_STREET": "South", "BLOCKFACE": "FOURTH ST - LAZELLE ST", "METER_STATUS": "Operational", "TOW_AWAY_HOURS": "4PM - 6PM", "METER_TIME": 120, "HANDICAP": 0, "HOURS_OPERATION": "8 AM - 10 PM", "IN_SERVICE": 14, "VALET_HOURS": null, "RATE": " $1.50", "FOOD_SERVICE_HOURS": null, "TAXI_ZONE_HOURS": null, "CHARGING_STATION": "No", "CHARGING_STATION_STATUS": null, "LATITUDE": 39.95653247950516, "LONGITUDE": -82.99539471676142}, "EE207": {"OBJECTID": 5209, "LOCATION": "MAIN ST E", "SIDE_OF_STREET": "South", "BLOCKFACE": "FIFTH ST - FOURTH ST", "METER_STATUS": "Bagged - Paid", "TOW_AWAY_HOURS": "4PM - 6PM", "METER_TIME": 120, "HANDICAP": 0, "HOURS_OPERATION": "8 AM - 6 PM", "IN_SERVICE": 10, "VALET_HOURS": null, "RATE": " $1.50", "FOOD_SERVICE_HOURS": null, "TAXI_ZONE_HOURS": null, "CHARGING_STATION": "No", "CHARGING_STATION_STATUS": null, "LATITUDE": 39.9566906760523, "LONGITUDE": -82.9940471612666}, "EE221": {"OBJECTID": 5215, "LOCATION": "MAIN ST E", "SIDE_OF_STREET": "South", "BLOCKFACE": "FIFTH ST - FOURTH ST", "METER_STATUS": "Operational", "TOW_AWAY_HOURS": "4PM - 6PM", "METER_TIME": 120, "HANDICAP": 0, "HOURS_OPERATION": "8 AM - 6 PM", "IN_SERVICE": 10, "VALET_HOURS": null, "RATE": " $1.50", "FOOD_SERVICE_HOURS": null, "TAXI_ZONE_HOURS": null, "CHARGING_STATION": "No", "CHARGING_STATION_STATUS": null, "LATITUDE": 39.95675513253654, "LONGITUDE": -82.99346256611902}, "EE307": {"OBJECTID": 5220, "LOCATION": "MAIN ST E", "SIDE_OF_STREET": "South", "BLOCKFACE": "FIFTH ST - GRANT AVE", "METER_STATUS": "Operational", "TOW_AWAY_HOURS": "4PM - 6PM", "METER_TIME": 120, "HANDICAP": 0, "HOURS_OPERATION": "8 AM - 6 PM", "IN_SERVICE": 10, "VALET_HOURS": null, "RATE": " $1.50", "FOOD_SERVICE_HOURS": null, "TAXI_ZONE_HOURS": null, "CHARGING_STATION": "No", "CHARGING_STATION_STATUS": null, "LATITUDE": 39.956847431468546, "LONGITUDE": -82.99266933500748}, "EE319": {"OBJECTID": 5226, "LOCATION": "MAIN ST E", "SIDE_OF_STREET": "South", "BLOCKFACE": "FIFTH ST - GRANT AVE", "METER_STATUS": "Operational", "TOW_AWAY_HOURS": "4PM - 6PM", "METER_TIME": 720, "HANDICAP": 0, "HOURS_OPERATION": "6 AM - 6 PM", "IN_SERVICE": 12, "VALET_HOURS": null, "RATE": " $4.80", "FOOD_SERVICE_HOURS": null, "TAXI_ZONE_HOURS": null, "CHARGING_STATION": "No", "CHARGING_STATION_STATUS": null, "LATITUDE": 39.95696428678723, "LONGITUDE": -82.99164529065038}, "EE329": {"OBJECTID": 5231, "LOCATION": "MAIN ST E", "SIDE_OF_STREET": "South", "BLOCKFACE": "FIFTH ST - GRANT AVE", "METER_STATUS": "Operational", "TOW_AWAY_HOURS": "4PM - 6PM", "METER_TIME": 720, "HANDICAP": 0, "HOURS_OPERATION": "6 AM - 6 PM", "IN_SERVICE": 12, "VALET_HOURS": null, "RATE": " $4.80", "FOOD_SERVICE_HOURS": null, "TAXI_ZONE_HOURS": null, "CHARGING_STATION": "No", "CHARGING_STATION_STATUS": null, "LATITUDE": 39.95703030703371, "LONGITUDE": -82.99107090283873}, "EE341": {"OBJECTID": 5237, "LOCATION": "MAIN ST E", "SIDE_OF_STREET": "South", "BLOCKFACE": "FIFTH ST - GRANT AVE", "METER_STATUS": "Operational", "TOW_AWAY_HOURS": "4PM - 6PM", "METER_TIME": 720, "HANDICAP": 0, "HOURS_OPERATION": "6 AM - 6 PM", "IN_SERVICE": 12, "VALET_HOURS": null, "RATE": " $4.80", "FOOD_SERVICE_HOURS": null, "TAXI_ZONE_HOURS": null, "CHARGING_STATION": "No", "CHARGING_STATION_STATUS": null, "LATITUDE": 39.957080400771396, "LONGITUDE": -82.99059392531018}, "SM74": {"OBJECTID": 5533, "LOCATION": "THIRD ST S", "SIDE_OF_STREET": "East", "BLOCKFACE": "CAPITAL ST - STATE ST", "METER_STATUS": "Operational", "TOW_AWAY_HOURS": "3PM - 6PM", "METER_TIME": 180, "HANDICAP": 0, "HOURS_OPERATION": "8 AM - 10 PM", "IN_SERVICE": 14, "VALET_HOURS": null, "RATE": " $2.25", "FOOD_SERVICE_HOURS": null, "TAXI_ZONE_HOURS": null, "CHARGING_STATION": "No", "CHARGING_STATION_STATUS": null, "LATITUDE": 39.96103810038153, "LONGITUDE": -82.99759588464138}, "SM208": {"OBJECTID": 5543, "LOCATION": "THIRD ST S", "SIDE_OF_STREET": "East", "BLOCKFACE": "CHAPEL ST - STATE ST", "METER_STATUS": "Operational", "TOW_AWAY_HOURS": "3PM - 6PM", "METER_TIME": 180, "HANDICAP": 0, "HOURS_OPERATION": "8 AM - 10 PM", "IN_SERVICE": 14, "VALET_HOURS": null, "RATE": " $2.25", "FOOD_SERVICE_HOURS": null, "TAXI_ZONE_HOURS": null, "CHARGING_STATION": "No", "CHARGING_STATION_STATUS": null, "LATITUDE": 39.95999637438235, "LONGITUDE": -82.9973885995503}, "SM408": {"OBJECTID": 5549, "LOCATION": "THIRD ST S", "SIDE_OF_STREET": "East", "BLOCKFACE": "MAIN ST - RICH ST", "METER_STATUS": "Operational", "TOW_AWAY_HOURS": null, "METER_TIME": 120, "HANDICAP": 0, "HOURS_OPERATION": "8 AM - 10 PM", "IN_SERVICE": 14, "VALET_HOURS": null, "RATE": " $1.50", "FOOD_SERVICE_HOURS": null, "TAXI_ZONE_HOURS": null, "CHARGING_STATION": "No", "CHARGING_STATION_STATUS": null, "LATITUDE": 39.95730471116821, "LONGITUDE": -82.9968672410249}, "WX157": {"OBJECTID": 5980, "LOCATION": "NATIONWIDE BLVD W", "SIDE_OF_STREET": "South", "BLOCKFACE": "MARCONI BLVD - WEST ST", "METER_STATUS": "Meter & Post Removed", "TOW_AWAY_HOURS": null, "METER_TIME": 120, "HANDICAP": 0, "HOURS_OPERATION": "9 AM - 10 PM", "IN_SERVICE": 13, "VALET_HOURS": null, "RATE": " $1.50", "FOOD_SERVICE_HOURS": null, "TAXI_ZONE_HOURS": null, "CHARGING_STATION": "No", "CHARGING_STATION_STATUS": null, "LATITUDE": 39.96843398208927, "LONGITUDE": -83.00606385299444}, "WX119": {"OBJECTID": 5986, "LOCATION": "NATIONWIDE BLVD W", "SIDE_OF_STREET": "South", "BLOCKFACE": "MARCONI BLVD - LUDLOW ST", "METER_STATUS": "Meter & Post Removed", "TOW_AWAY_HOURS": "7AM - 9AM - 4PM - 6PM", "METER_TIME": 120, "HANDICAP": 0, "HOURS_OPERATION": "9AM-4PM-6PM-10PM", "IN_SERVICE": 11, "VALET_HOURS": null, "RATE": " $1.50", "FOOD_SERVICE_HOURS": null, "TAXI_ZONE_HOURS": null, "CHARGING_STATION": "No", "CHARGING_STATION_STATUS": null, "LATITUDE": 39.968545289265585, "LONGITUDE": -83.00506653579859}, "EX31": {"OBJECTID": 5991, "LOCATION": "NATIONWIDE BLVD E", "SIDE_OF_STREET": "South", "BLOCKFACE": "HIGH ST - THIRD ST", "METER_STATUS": "Bagged - Paid", "TOW_AWAY_HOURS": null, "METER_TIME": 180, "HANDICAP": 0, "HOURS_OPERATION": "8 AM - 10 PM", "IN_SERVICE": 14, "VALET_HOURS": null, "RATE": " $2.25", "FOOD_SERVICE_HOURS": null, "TAXI_ZONE_HOURS": null, "CHARGING_STATION": "No", "CHARGING_STATION_STATUS": null, "LATITUDE": 39.96902342558579, "LONGITUDE": -82.99991576846695}, "B272": {"OBJECTID": 8571, "LOCATION": "WILLOW ST E", "SIDE_OF_STREET": "North", "BLOCKFACE": "HIGH ST - PEARL ST", "METER_STATUS": "Operational", "TOW_AWAY_HOURS": "0", "METER_TIME": 180, "HANDICAP": 0, "HOURS_OPERATION": "8 AM - 10 PM", "IN_SERVICE": 14, "VALET_HOURS": null, "RATE": " $2.25", "FOOD_SERVICE_HOURS": null, "TAXI_ZONE_HOURS": null, "CHARGING_STATION": "No", "CHARGING_STATION_STATUS": null, "LATITUDE": 39.94996765779023, "LONGITUDE": -82.99793060956789}, "K120": {"OBJECTID": 8897, "LOCATION": "LINCOLN ST E", "SIDE_OF_STREET": "North", "BLOCKFACE": "HIGH ST - PEARL ST", "METER_STATUS": "Operational", "TOW_AWAY_HOURS": null, "METER_TIME": 180, "HANDICAP": 0, "HOURS_OPERATION": "8 AM - 10 PM", "IN_SERVICE": 14, "VALET_HOURS": null, "RATE": " $2.25", "FOOD_SERVICE_HOURS": null, "TAXI_ZONE_HOURS": null, "CHARGING_STATION": "No", "CHARGING_STATION_STATUS": null, "LATITUDE": 39.97693736416276, "LONGITUDE": -83.00322522487384}, "K185": {"OBJECTID": 8902, "LOCATION": "LINCOLN ST E", "SIDE_OF_STREET": "South", "BLOCKFACE": "HIGH ST - PEARL ST", "METER_STATUS": "Bagged - Paid", "TOW_AWAY_HOURS": null, "METER_TIME": 180, "HANDICAP": 0, "HOURS_OPERATION": "8 AM - 10 PM", "IN_SERVICE": 14, "VALET_HOURS": null, "RATE": " $2.25", "FOOD_SERVICE_HOURS": null, "TAXI_ZONE_HOURS": null, "CHARGING_STATION": "No", "CHARGING_STATION_STATUS": null, "LATITUDE": 39.97686966355468, "LONGITUDE": -83.00296611710085}, "NZ9": {"OBJECTID": 8908, "LOCATION": "JEFFERSON AVE N", "SIDE_OF_STREET": "West", "BLOCKFACE": "AVON PL - BROAD ST", "METER_STATUS": "Operational", "TOW_AWAY_HOURS": null, "METER_TIME": 720, "HANDICAP": 0, "HOURS_OPERATION": "6 AM - 10 PM", "IN_SERVICE": 16, "VALET_HOURS": null, "RATE": " $4.80", "FOOD_SERVICE_HOURS": null, "TAXI_ZONE_HOURS": null, "CHARGING_STATION": "No", "CHARGING_STATION_STATUS": null, "LATITUDE": 39.96453492193672, "LONGITUDE": -82.98458289863056}, "NZ6": {"OBJECTID": 8913, "LOCATION": "JEFFERSON AVE N", "SIDE_OF_STREET": "East", "BLOCKFACE": "AVON PL - BROAD ST", "METER_STATUS": "Operational", "TOW_AWAY_HOURS": null, "METER_TIME": 720, "HANDICAP": 0, "HOURS_OPERATION": "6 AM - 10 PM", "IN_SERVICE": 16, "VALET_HOURS": null, "RATE": " $4.80", "FOOD_SERVICE_HOURS": null, "TAXI_ZONE_HOURS": null, "CHARGING_STATION": "No", "CHARGING_STATION_STATUS": null, "LATITUDE": 39.96445665626701, "LONGITUDE": -82.9843795992938}, "NZ161": {"OBJECTID": 8919, "LOCATION": "JEFFERSON AVE", "SIDE_OF_STREET": "West", "BLOCKFACE": "AVON PL - LONG ST", "METER_STATUS": "Operational", "TOW_AWAY_HOURS": null, "METER_TIME": 720, "HANDICAP": 0, "HOURS_OPERATION": "6 AM - 10 PM", "IN_SERVICE": 16, "VALET_HOURS": null, "RATE": " $4.80", "FOOD_SERVICE_HOURS": null, "TAXI_ZONE_HOURS": null, "CHARGING_STATION": "No", "CHARGING_STATION_STATUS": null, "LATITUDE": 39.96661165675745, "LONGITUDE": -82.98496679578726}, "NZ154": {"OBJECTID": 8924, "LOCATION": "JEFFERSON AVE", "SIDE_OF_STREET": "East", "BLOCKFACE": "BOONE ST - LONG ST", "METER_STATUS": "Operational", "TOW_AWAY_HOURS": null, "METER_TIME": 720, "HANDICAP": 0, "HOURS_OPERATION": "6 AM - 10 PM", "IN_SERVICE": 16, "VALET_HOURS": null, "RATE": " $4.80", "FOOD_SERVICE_HOURS": null, "TAXI_ZONE_HOURS": null, "CHARGING_STATION": "No", "CHARGING_STATION_STATUS": null, "LATITUDE": 39.96646521707647, "LONGITUDE": -82.9847859620075}, "C446": {"OBJECTID": 6144, "LOCATION": "STARLING ST S", "SIDE_OF_STREET": "East", "BLOCKFACE": "TOWN ST - STATE ST", "METER_STATUS": "Operational", "TOW_AWAY_HOURS": "3AM - 7AM - 4PM - 6PM", "METER_TIME": 720, "HANDICAP": 0, "HOURS_OPERATION": "6 AM - 6 PM", "IN_SERVICE": 12, "VALET_HOURS": null, "RATE": " $4.80", "FOOD_SERVICE_HOURS": null, "TAXI_ZONE_HOURS": null, "CHARGING_STATION": "No", "CHARGING_STATION_STATUS": null, "LATITUDE": 39.95842781189679, "LONGITUDE": -83.00977803645301}, "WC217": {"OBJECTID": 6149, "LOCATION": "MOUND ST W", "SIDE_OF_STREET": "South", "BLOCKFACE": "FRONT ST - SHORT ST", "METER_STATUS": "Operational", "TOW_AWAY_HOURS": null, "METER_TIME": 720, "HANDICAP": 0, "HOURS_OPERATION": "6 AM - 10 PM", "IN_SERVICE": 16, "VALET_HOURS": null, "RATE": " $4.80", "FOOD_SERVICE_HOURS": null, "TAXI_ZONE_HOURS": null, "CHARGING_STATION": "No", "CHARGING_STATION_STATUS": null, "LATITUDE": 39.95416689454945, "LONGITUDE": -83.00425482342933}, "WC205": {"OBJECTID": 6155, "LOCATION": "MOUND ST W", "SIDE_OF_STREET": "South", "BLOCKFACE": "FRONT ST - SHORT ST", "METER_STATUS": "Operational", "TOW_AWAY_HOURS": null, "METER_TIME": 720, "HANDICAP": 0, "HOURS_OPERATION": "6 AM - 10 PM", "IN_SERVICE": 16, "VALET_HOURS": null, "RATE": " $4.80", "FOOD_SERVICE_HOURS": null, "TAXI_ZONE_HOURS": null, "CHARGING_STATION": "No", "CHARGING_STATION_STATUS": null, "LATITUDE": 39.95423970863314, "LONGITUDE": -83.00361026177386}, "UW972": {"OBJECTID": 6712, "LOCATION": "NEIL AVE N", "SIDE_OF_STREET": "East", "BLOCKFACE": "ELEVENTH AVE - TENTH AVE", "METER_STATUS": "Bagged - Paid", "TOW_AWAY_HOURS": null, "METER_TIME": 120, "HANDICAP": 0, "HOURS_OPERATION": "8 AM - 10 PM", "IN_SERVICE": 14, "VALET_HOURS": null, "RATE": "  $.75", "FOOD_SERVICE_HOURS": null, "TAXI_ZONE_HOURS": null, "CHARGING_STATION": "No", "CHARGING_STATION_STATUS": null, "LATITUDE": 39.99525157758688, "LONGITUDE": -83.01453506510344}, "K156": {"OBJECTID": 6717, "LOCATION": "POPLAR AVE W", "SIDE_OF_STREET": "North", "BLOCKFACE": "HIGH ST - PARK ST", "METER_STATUS": "Operational", "TOW_AWAY_HOURS": null, "METER_TIME": 180, "HANDICAP": 0, "HOURS_OPERATION": "8 AM - 10 PM", "IN_SERVICE": 14, "VALET_HOURS": null, "RATE": " $2.25", "FOOD_SERVICE_HOURS": null, "TAXI_ZONE_HOURS": null, "CHARGING_STATION": "No", "CHARGING_STATION_STATUS": null, "LATITUDE": 39.974498814588145, "LONGITUDE": -83.00404715706837}, "K165": {"OBJECTID": 6722, "LOCATION": "POPLAR AVE W", "SIDE_OF_STREET": "South", "BLOCKFACE": "HIGH ST - PARK ST", "METER_STATUS": "Operational", "TOW_AWAY_HOURS": null, "METER_TIME": 180, "HANDICAP": 0, "HOURS_OPERATION": "8 AM - 10 PM", "IN_SERVICE": 14, "VALET_HOURS": null, "RATE": " $2.25", "FOOD_SERVICE_HOURS": null, "TAXI_ZONE_HOURS": null, "CHARGING_STATION": "No", "CHARGING_STATION_STATUS": null, "LATITUDE": 39.97438041659308, "LONGITUDE": -83.00425528745205}, "NI603": {"OBJECTID": 9467, "LOCATION": "PARK ST N", "SIDE_OF_STREET": "West", "BLOCKFACE": "VINE ST - SPRUCE ST", "METER_STATUS": "Operational", "TOW_AWAY_HOURS": "0", "METER_TIME": 180, "HANDICAP": 0, "HOURS_OPERATION": "8 AM - 10 PM", "IN_SERVICE": 14, "VALET_HOURS": "8 PM - 10 PM", "RATE": " $2.25", "FOOD_SERVICE_HOURS": null, "TAXI_ZONE_HOURS": "10 PM - 2 AM THU - SAT", "CHARGING_STATION": "No", "CHARGING_STATION_STATUS": null, "LATITUDE": 39.971686816996005, "LONGITUDE": -83.00476717319782}, "K244": {"OBJECTID": 9602, "LOCATION": "STARR AVE W", "SIDE_OF_STREET": "North", "BLOCKFACE": "WALL ST - HIGH ST", "METER_STATUS": "Operational", "TOW_AWAY_HOURS": null, "METER_TIME": 180, "HANDICAP": 0, "HOURS_OPERATION": "8 AM - 10 PM", "IN_SERVICE": 14, "VALET_HOURS": null, "RATE": " $2.25", "FOOD_SERVICE_HOURS": null, "TAXI_ZONE_HOURS": null, "CHARGING_STATION": "No", "CHARGING_STATION_STATUS": null, "LATITUDE": 39.98299527496006, "LONGITUDE": -83.00531290923178}, "K268": {"OBJECTID": 9607, "LOCATION": "THIRD AVE W", "SIDE_OF_STREET": "North", "BLOCKFACE": "APOLLO PL - HIGH ST", "METER_STATUS": "Bagged - Paid", "TOW_AWAY_HOURS": null, "METER_TIME": 180, "HANDICAP": 0, "HOURS_OPERATION": "8 AM - 10 PM", "IN_SERVICE": 14, "VALET_HOURS": null, "RATE": " $2.25", "FOOD_SERVICE_HOURS": null, "TAXI_ZONE_HOURS": null, "CHARGING_STATION": "No", "CHARGING_STATION_STATUS": null, "LATITUDE": 39.98407523664755, "LONGITUDE": -83.00565994000905}, "EG16": {"OBJECTID": 9618, "LOCATION": "RICH ST E", "SIDE_OF_STREET": "North", "BLOCKFACE": "HIGH ST - THIRD ST", "METER_STATUS": "Meter & Post Removed", "TOW_AWAY_HOURS": null, "METER_TIME": 180, "HANDICAP": 0, "HOURS_OPERATION": "8 AM - 10 PM", "IN_SERVICE": 14, "VALET_HOURS": null, "RATE": " $2.25", "FOOD_SERVICE_HOURS": null, "TAXI_ZONE_HOURS": null, "CHARGING_STATION": "No", "CHARGING_STATION_STATUS": null, "LATITUDE": 39.957778295579956, "LONGITUDE": -82.99797235707933}, "EG28": {"OBJECTID": 9624, "LOCATION": "RICH ST E", "SIDE_OF_STREET": null, "BLOCKFACE": "HIGH ST - THIRD ST", "METER_STATUS": "Meter & Post Removed", "TOW_AWAY_HOURS": null, "METER_TIME": 180, "HANDICAP": 0, "HOURS_OPERATION": "8 AM - 10 PM", "IN_SERVICE": 14, "VALET_HOURS": null, "RATE": " $2.25", "FOOD_SERVICE_HOURS": null, "TAXI_ZONE_HOURS": null, "CHARGING_STATION": "No", "CHARGING_STATION_STATUS": null, "LATITUDE": 39.957845099652765, "LONGITUDE": -82.997368239787}, "SS1": {"OBJECTID": 6353, "LOCATION": "SIXTH ST S", "SIDE_OF_STREET": "West", "BLOCKFACE": "BROAD ST - CAPITAL ST", "METER_STATUS": "Operational", "TOW_AWAY_HOURS": null, "METER_TIME": 120, "HANDICAP": 0, "HOURS_OPERATION": "8 AM - 6 PM", "IN_SERVICE": 10, "VALET_HOURS": null, "RATE": " $1.50", "FOOD_SERVICE_HOURS": null, "TAXI_ZONE_HOURS": null, "CHARGING_STATION": "No", "CHARGING_STATION_STATUS": null, "LATITUDE": 39.962838657092554, "LONGITUDE": -82.99270502368574}, "SS55": {"OBJECTID": 6359, "LOCATION": "SIXTH ST S", "SIDE_OF_STREET": "West", "BLOCKFACE": "CAPITAL ST - OAK ST", "METER_STATUS": "Operational", "TOW_AWAY_HOURS": null, "METER_TIME": 120, "HANDICAP": 0, "HOURS_OPERATION": "8 AM - 6 PM", "IN_SERVICE": 10, "VALET_HOURS": null, "RATE": " $1.50", "FOOD_SERVICE_HOURS": null, "TAXI_ZONE_HOURS": null, "CHARGING_STATION": "No", "CHARGING_STATION_STATUS": null, "LATITUDE": 39.962099085515355, "LONGITUDE": -82.99255913811889}, "SS103": {"OBJECTID": 6364, "LOCATION": "SIXTH ST S", "SIDE_OF_STREET": "West", "BLOCKFACE": "OAK ST - STATE ST", "METER_STATUS": "Operational", "TOW_AWAY_HOURS": null, "METER_TIME": 120, "HANDICAP": 0, "HOURS_OPERATION": "8 AM - 6 PM", "IN_SERVICE": 10, "VALET_HOURS": null, "RATE": " $1.50", "FOOD_SERVICE_HOURS": null, "TAXI_ZONE_HOURS": null, "CHARGING_STATION": "No", "CHARGING_STATION_STATUS": null, "LATITUDE": 39.961536398284444, "LONGITUDE": -82.99244729619599}, "EL201": {"OBJECTID": 6370, "LOCATION": "OAK ST E", "SIDE_OF_STREET": "South", "BLOCKFACE": "FOURTH ST - YOUNG ST", "METER_STATUS": "Operational", "TOW_AWAY_HOURS": null, "METER_TIME": 180, "HANDICAP": 1, "HOURS_OPERATION": "8 AM - 6 PM", "IN_SERVICE": 10, "VALET_HOURS": null, "RATE": " $2.25", "FOOD_SERVICE_HOURS": null, "TAXI_ZONE_HOURS": null, "CHARGING_STATION": "No", "CHARGING_STATION_STATUS": null, "LATITUDE": 39.9614002450233, "LONGITUDE": -82.99566219599159}, "EL213": {"OBJECTID": 6375, "LOCATION": "OAK ST E", "SIDE_OF_STREET": "South", "BLOCKFACE": "FOURTH ST - YOUNG ST", "METER_STATUS": "Operational", "TOW_AWAY_HOURS": null, "METER_TIME": 180, "HANDICAP": 0, "HOURS_OPERATION": "8 AM - 6 PM", "IN_SERVICE": 10, "VALET_HOURS": null, "RATE": " $2.25", "FOOD_SERVICE_HOURS": null, "TAXI_ZONE_HOURS": null, "CHARGING_STATION": "No", "CHARGING_STATION_STATUS": null, "LATITUDE": 39.961456257139055, "LONGITUDE": -82.99522028205396}, "NV110": {"OBJECTID": 6381, "LOCATION": "NINTH ST N", "SIDE_OF_STREET": "East", "BLOCKFACE": "GAY ST - LONG ST", "METER_STATUS": "Operational", "TOW_AWAY_HOURS": null, "METER_TIME": 720, "HANDICAP": 0, "HOURS_OPERATION": "6 AM - 10 PM", "IN_SERVICE": 16, "VALET_HOURS": null, "RATE": " $4.80", "FOOD_SERVICE_HOURS": null, "TAXI_ZONE_HOURS": null, "CHARGING_STATION": "No", "CHARGING_STATION_STATUS": null, "LATITUDE": 39.96584165700373, "LONGITUDE": -82.98872647263323}, "UE383": {"OBJECTID": 6561, "LOCATION": "SIXTEENTH AVE E", "SIDE_OF_STREET": "South", "BLOCKFACE": "HIGH ST - PEARL ST", "METER_STATUS": "Bagged - Paid", "TOW_AWAY_HOURS": null, "METER_TIME": 120, "HANDICAP": 0, "HOURS_OPERATION": "8 AM - 10 PM", "IN_SERVICE": 14, "VALET_HOURS": null, "RATE": " $1.50", "FOOD_SERVICE_HOURS": null, "TAXI_ZONE_HOURS": null, "CHARGING_STATION": "No", "CHARGING_STATION_STATUS": null, "LATITUDE": 40.00079746986509, "LONGITUDE": -83.00766004602245}, "K444": {"OBJECTID": 6572, "LOCATION": "PARK ST N", "SIDE_OF_STREET": "East", "BLOCKFACE": "BUTTLES AVE - RUSSELL ST", "METER_STATUS": "Operational", "TOW_AWAY_HOURS": "6PM - 10AM", "METER_TIME": 360, "HANDICAP": 0, "HOURS_OPERATION": "10 AM - 6 PM", "IN_SERVICE": 8, "VALET_HOURS": null, "RATE": " $4.50", "FOOD_SERVICE_HOURS": null, "TAXI_ZONE_HOURS": null, "CHARGING_STATION": "No", "CHARGING_STATION_STATUS": null, "LATITUDE": 39.976972761983255, "LONGITUDE": -83.0050057904561}, "K419": {"OBJECTID": 6577, "LOCATION": "PARK ST N", "SIDE_OF_STREET": "West", "BLOCKFACE": "BUTTLES AVE - RUSSELL ST", "METER_STATUS": "Operational", "TOW_AWAY_HOURS": "0", "METER_TIME": 360180, "HANDICAP": 0, "HOURS_OPERATION": "8AM - 5PM & 5PM - 10PM", "IN_SERVICE": null, "VALET_HOURS": null, "RATE": " $4.50", "FOOD_SERVICE_HOURS": null, "TAXI_ZONE_HOURS": null, "CHARGING_STATION": "No", "CHARGING_STATION_STATUS": null, "LATITUDE": 39.976928908398705, "LONGITUDE": -83.00519962334506}, "K430": {"OBJECTID": 6582, "LOCATION": "PARK ST N", "SIDE_OF_STREET": "East", "BLOCKFACE": "BUTTLES AVE - RUSSELL ST", "METER_STATUS": "Operational", "TOW_AWAY_HOURS": "6PM - 10AM", "METER_TIME": 360, "HANDICAP": 0, "HOURS_OPERATION": "10 AM - 6 PM", "IN_SERVICE": 8, "VALET_HOURS": null, "RATE": " $4.50", "FOOD_SERVICE_HOURS": null, "TAXI_ZONE_HOURS": null, "CHARGING_STATION": "No", "CHARGING_STATION_STATUS": null, "LATITUDE": 39.97674669530647, "LONGITUDE": -83.0049567322342}, "K411": {"OBJECTID": 6588, "LOCATION": "PARK ST N", "SIDE_OF_STREET": "West", "BLOCKFACE": "BUTTLES AVE - RUSSELL ST", "METER_STATUS": "Operational", "TOW_AWAY_HOURS": "0", "METER_TIME": 360180, "HANDICAP": 0, "HOURS_OPERATION": "8AM - 5PM & 5PM - 10PM", "IN_SERVICE": null, "VALET_HOURS": null, "RATE": " $4.50", "FOOD_SERVICE_HOURS": null, "TAXI_ZONE_HOURS": null, "CHARGING_STATION": "No", "CHARGING_STATION_STATUS": null, "LATITUDE": 39.976684530162984, "LONGITUDE": -83.00515195324873}, "K416": {"OBJECTID": 6593, "LOCATION": "PARK ST N", "SIDE_OF_STREET": "East", "BLOCKFACE": "BUTTLES AVE - RUSSELL ST", "METER_STATUS": "Operational", "TOW_AWAY_HOURS": "6PM - 10AM", "METER_TIME": 360, "HANDICAP": 0, "HOURS_OPERATION": "10 AM - 6 PM", "IN_SERVICE": 8, "VALET_HOURS": null, "RATE": " $4.50", "FOOD_SERVICE_HOURS": null, "TAXI_ZONE_HOURS": null, "CHARGING_STATION": "No", "CHARGING_STATION_STATUS": null, "LATITUDE": 39.976514980343, "LONGITUDE": -83.00491820915366}, "WN9": {"OBJECTID": 7215, "LOCATION": "BROAD ST W", "SIDE_OF_STREET": "South", "BLOCKFACE": "HIGH ST - WALL ST", "METER_STATUS": "Operational", "TOW_AWAY_HOURS": "7 AM - 9 AM & 3 PM - 6 PM", "METER_TIME": 180, "HANDICAP": 0, "HOURS_OPERATION": "9AM - 3PM & 6PM - 10PM", "IN_SERVICE": null, "VALET_HOURS": null, "RATE": " $2.25", "FOOD_SERVICE_HOURS": null, "TAXI_ZONE_HOURS": null, "CHARGING_STATION": "No", "CHARGING_STATION_STATUS": null, "LATITUDE": 39.962059269616596, "LONGITUDE": -83.00119434210298}, "EN105": {"OBJECTID": 7221, "LOCATION": "BROAD ST E", "SIDE_OF_STREET": "South", "BLOCKFACE": "LAZELLE ST - THIRD ST", "METER_STATUS": "Operational", "TOW_AWAY_HOURS": "4PM - 6PM", "METER_TIME": 120, "HANDICAP": 0, "HOURS_OPERATION": "8AM - 4PM & 6PM - 10PM", "IN_SERVICE": 12, "VALET_HOURS": null, "RATE": " $1.50", "FOOD_SERVICE_HOURS": null, "TAXI_ZONE_HOURS": null, "CHARGING_STATION": "No", "CHARGING_STATION_STATUS": null, "LATITUDE": 39.96250362069764, "LONGITUDE": -82.99725156852413}, "EN261": {"OBJECTID": 7226, "LOCATION": "BROAD ST E", "SIDE_OF_STREET": "South", "BLOCKFACE": "FIFTH ST - YOUNG ST", "METER_STATUS": "Operational", "TOW_AWAY_HOURS": "4PM - 6PM", "METER_TIME": 120, "HANDICAP": 0, "HOURS_OPERATION": "8AM - 4PM & 6PM - 10PM", "IN_SERVICE": 12, "VALET_HOURS": null, "RATE": " $1.50", "FOOD_SERVICE_HOURS": null, "TAXI_ZONE_HOURS": null, "CHARGING_STATION": "No", "CHARGING_STATION_STATUS": null, "LATITUDE": 39.962788666212745, "LONGITUDE": -82.99473546655774}, "EN313": {"OBJECTID": 7232, "LOCATION": "BROAD ST E", "SIDE_OF_STREET": "South", "BLOCKFACE": "FIFTH ST - SIXTH ST", "METER_STATUS": "Operational", "TOW_AWAY_HOURS": "4PM - 6PM", "METER_TIME": 120, "HANDICAP": 0, "HOURS_OPERATION": "8AM - 4PM & 6PM - 10PM", "IN_SERVICE": 12, "VALET_HOURS": null, "RATE": " $1.50", "FOOD_SERVICE_HOURS": null, "TAXI_ZONE_HOURS": null, "CHARGING_STATION": "No", "CHARGING_STATION_STATUS": null, "LATITUDE": 39.96295317887311, "LONGITUDE": -82.99329596605871}, "EN323": {"OBJECTID": 7237, "LOCATION": "BROAD ST E", "SIDE_OF_STREET": "South", "BLOCKFACE": "FIFTH ST - SIXTH ST", "METER_STATUS": "Operational", "TOW_AWAY_HOURS": "4PM - 6PM", "METER_TIME": 120, "HANDICAP": 0, "HOURS_OPERATION": "8AM - 4PM & 6PM - 10PM", "IN_SERVICE": 12, "VALET_HOURS": null, "RATE": " $1.50", "FOOD_SERVICE_HOURS": null, "TAXI_ZONE_HOURS": null, "CHARGING_STATION": "No", "CHARGING_STATION_STATUS": null, "LATITUDE": 39.962995375451754, "LONGITUDE": -82.99291012849143}, "M797": {"OBJECTID": 7025, "LOCATION": "TOWN ST W", "SIDE_OF_STREET": "South", "BLOCKFACE": "GREEN ST - DAVIS AVE", "METER_STATUS": "Meter & Post Removed", "TOW_AWAY_HOURS": null, "METER_TIME": 120, "HANDICAP": 0, "HOURS_OPERATION": "8 AM - 6 PM", "IN_SERVICE": 10, "VALET_HOURS": null, "RATE": " $1.50", "FOOD_SERVICE_HOURS": null, "TAXI_ZONE_HOURS": null, "CHARGING_STATION": "No", "CHARGING_STATION_STATUS": null, "LATITUDE": 39.956202175467155, "LONGITUDE": -83.02060056571983}, "C889": {"OBJECTID": 7030, "LOCATION": "TOWN ST W", "SIDE_OF_STREET": "South", "BLOCKFACE": "BELLE ST - WASHINGTON BLVD", "METER_STATUS": "Meter & Post Removed", "TOW_AWAY_HOURS": "4PM - 6PM", "METER_TIME": 720, "HANDICAP": 0, "HOURS_OPERATION": "6 AM - 6 PM", "IN_SERVICE": 12, "VALET_HOURS": null, "RATE": " $2.40", "FOOD_SERVICE_HOURS": null, "TAXI_ZONE_HOURS": null, "CHARGING_STATION": "No", "CHARGING_STATION_STATUS": null, "LATITUDE": 39.957818464874116, "LONGITUDE": -83.00738799472249}, "UE234": {"OBJECTID": 6519, "LOCATION": "THIRTEENTH AVE E", "SIDE_OF_STREET": "North", "BLOCKFACE": "INDIANOLA AVE - PEARL ST", "METER_STATUS": "Bagged - Paid", "TOW_AWAY_HOURS": null, "METER_TIME": 120, "HANDICAP": 0, "HOURS_OPERATION": "8 AM - 10 PM", "IN_SERVICE": 14, "VALET_HOURS": null, "RATE": " $1.50", "FOOD_SERVICE_HOURS": null, "TAXI_ZONE_HOURS": null, "CHARGING_STATION": "No", "CHARGING_STATION_STATUS": null, "LATITUDE": 39.997874068418895, "LONGITUDE": -83.00655041800601}, "UE218": {"OBJECTID": 6529, "LOCATION": "THIRTEENTH AVE E", "SIDE_OF_STREET": "North", "BLOCKFACE": "HIGH ST - PEARL ST", "METER_STATUS": "Operational", "TOW_AWAY_HOURS": null, "METER_TIME": 120, "HANDICAP": 0, "HOURS_OPERATION": "8 AM - 10 PM", "IN_SERVICE": 14, "VALET_HOURS": null, "RATE": " $1.50", "FOOD_SERVICE_HOURS": null, "TAXI_ZONE_HOURS": null, "CHARGING_STATION": "No", "CHARGING_STATION_STATUS": null, "LATITUDE": 39.99792902529562, "LONGITUDE": -83.00705309012578}, "UE208": {"OBJECTID": 6535, "LOCATION": "THIRTEENTH AVE E", "SIDE_OF_STREET": "North", "BLOCKFACE": "HIGH ST - PEARL ST", "METER_STATUS": "Operational", "TOW_AWAY_HOURS": null, "METER_TIME": 120, "HANDICAP": 0, "HOURS_OPERATION": "8 AM - 10 PM", "IN_SERVICE": 14, "VALET_HOURS": null, "RATE": " $1.50", "FOOD_SERVICE_HOURS": null, "TAXI_ZONE_HOURS": null, "CHARGING_STATION": "No", "CHARGING_STATION_STATUS": null, "LATITUDE": 39.99793376840419, "LONGITUDE": -83.0072112696279}, "UE203": {"OBJECTID": 6540, "LOCATION": "THIRTEENTH AVE E", "SIDE_OF_STREET": "South", "BLOCKFACE": "HIGH ST - PEARL ST", "METER_STATUS": "Operational", "TOW_AWAY_HOURS": null, "METER_TIME": 120, "HANDICAP": 0, "HOURS_OPERATION": "8 AM - 10 PM", "IN_SERVICE": 14, "VALET_HOURS": null, "RATE": " $1.50", "FOOD_SERVICE_HOURS": null, "TAXI_ZONE_HOURS": null, "CHARGING_STATION": "No", "CHARGING_STATION_STATUS": null, "LATITUDE": 39.99778710693984, "LONGITUDE": -83.0072488449192}, "UE408": {"OBJECTID": 6546, "LOCATION": "SEVENTEENTH AVE E", "SIDE_OF_STREET": "North", "BLOCKFACE": "PEARL AL - WALDECK AV", "METER_STATUS": "Operational", "TOW_AWAY_HOURS": null, "METER_TIME": 120, "HANDICAP": 0, "HOURS_OPERATION": "8 AM - 10 PM", "IN_SERVICE": 14, "VALET_HOURS": null, "RATE": " $1.50", "FOOD_SERVICE_HOURS": null, "TAXI_ZONE_HOURS": null, "CHARGING_STATION": "No", "CHARGING_STATION_STATUS": null, "LATITUDE": 40.00204335565113, "LONGITUDE": -83.00707554545458}, "UE418": {"OBJECTID": 6551, "LOCATION": "SEVENTEENTH AVE E", "SIDE_OF_STREET": "North", "BLOCKFACE": "PEARL AL - WALDECK AV", "METER_STATUS": "Operational", "TOW_AWAY_HOURS": null, "METER_TIME": 120, "HANDICAP": 0, "HOURS_OPERATION": "8 AM - 10 PM", "IN_SERVICE": 14, "VALET_HOURS": null, "RATE": " $1.50", "FOOD_SERVICE_HOURS": null, "TAXI_ZONE_HOURS": null, "CHARGING_STATION": "No", "CHARGING_STATION_STATUS": null, "LATITUDE": 40.002090301869806, "LONGITUDE": -83.00669492986142}, "UE291": {"OBJECTID": 8408, "LOCATION": "FOURTEENTH AVE E", "SIDE_OF_STREET": "South", "BLOCKFACE": "INDIANOLA AVE - PEARL ST", "METER_STATUS": "Operational", "TOW_AWAY_HOURS": null, "METER_TIME": 120, "HANDICAP": 0, "HOURS_OPERATION": "8 AM - 10 PM", "IN_SERVICE": 14, "VALET_HOURS": null, "RATE": " $1.50", "FOOD_SERVICE_HOURS": null, "TAXI_ZONE_HOURS": null, "CHARGING_STATION": "No", "CHARGING_STATION_STATUS": null, "LATITUDE": 39.99881836947895, "LONGITUDE": -83.00663179173122}, "UE152": {"OBJECTID": 8413, "LOCATION": "TWELFTH AVE E", "SIDE_OF_STREET": "North", "BLOCKFACE": "HIGH ST - PEARL ST", "METER_STATUS": "Operational", "TOW_AWAY_HOURS": null, "METER_TIME": 120, "HANDICAP": 0, "HOURS_OPERATION": "8 AM - 10 PM", "IN_SERVICE": 14, "VALET_HOURS": null, "RATE": " $1.50", "FOOD_SERVICE_HOURS": null, "TAXI_ZONE_HOURS": null, "CHARGING_STATION": "No", "CHARGING_STATION_STATUS": null, "LATITUDE": 39.99686517837419, "LONGITUDE": -83.0070939563237}, "UE172": {"OBJECTID": 8419, "LOCATION": "TWELFTH AVE E", "SIDE_OF_STREET": "North", "BLOCKFACE": "INDIANOLA AVE - PEARL ST", "METER_STATUS": "Operational", "TOW_AWAY_HOURS": null, "METER_TIME": 120, "HANDICAP": 0, "HOURS_OPERATION": "8 AM - 10 PM", "IN_SERVICE": 14, "VALET_HOURS": null, "RATE": " $1.50", "FOOD_SERVICE_HOURS": null, "TAXI_ZONE_HOURS": null, "CHARGING_STATION": "No", "CHARGING_STATION_STATUS": null, "LATITUDE": 39.996828232569094, "LONGITUDE": -83.00643641688897}, "UE178": {"OBJECTID": 8424, "LOCATION": "TWELFTH AVE E", "SIDE_OF_STREET": "North", "BLOCKFACE": "INDIANOLA AVE - PEARL ST", "METER_STATUS": "Operational", "TOW_AWAY_HOURS": null, "METER_TIME": 120, "HANDICAP": 0, "HOURS_OPERATION": "8 AM - 10 PM", "IN_SERVICE": 14, "VALET_HOURS": null, "RATE": " $1.50", "FOOD_SERVICE_HOURS": null, "TAXI_ZONE_HOURS": null, "CHARGING_STATION": "No", "CHARGING_STATION_STATUS": null, "LATITUDE": 39.996816270057025, "LONGITUDE": -83.00619629695379}, "UE181": {"OBJECTID": 8429, "LOCATION": "TWELFTH AVE E", "SIDE_OF_STREET": "South", "BLOCKFACE": "INDIANOLA AVE - PEARL ST", "METER_STATUS": "Operational", "TOW_AWAY_HOURS": null, "METER_TIME": 120, "HANDICAP": 0, "HOURS_OPERATION": "8 AM - 10 PM", "IN_SERVICE": 14, "VALET_HOURS": null, "RATE": " $1.50", "FOOD_SERVICE_HOURS": null, "TAXI_ZONE_HOURS": null, "CHARGING_STATION": "No", "CHARGING_STATION_STATUS": null, "LATITUDE": 39.99670949748, "LONGITUDE": -83.00598919404726}, "UE325": {"OBJECTID": 8435, "LOCATION": "FIFTEENTH AVE E", "SIDE_OF_STREET": "South", "BLOCKFACE": "INDIANOLA AVE - PEARL ST", "METER_STATUS": "Operational", "TOW_AWAY_HOURS": null, "METER_TIME": 120, "HANDICAP": 0, "HOURS_OPERATION": "8 AM - 10 PM", "IN_SERVICE": 14, "VALET_HOURS": null, "RATE": " $1.50", "FOOD_SERVICE_HOURS": null, "TAXI_ZONE_HOURS": null, "CHARGING_STATION": "No", "CHARGING_STATION_STATUS": null, "LATITUDE": 39.999908833533475, "LONGITUDE": -83.00614557474698}, "ER30": {"OBJECTID": 5700, "LOCATION": "LONG ST E", "SIDE_OF_STREET": "North", "BLOCKFACE": "PEARL ST - THIRD ST", "METER_STATUS": "Operational", "TOW_AWAY_HOURS": null, "METER_TIME": 120, "HANDICAP": 0, "HOURS_OPERATION": "8 AM - 10 PM", "IN_SERVICE": 14, "VALET_HOURS": null, "RATE": " $1.50", "FOOD_SERVICE_HOURS": null, "TAXI_ZONE_HOURS": null, "CHARGING_STATION": "No", "CHARGING_STATION_STATUS": null, "LATITUDE": 39.965192524220754, "LONGITUDE": -82.99977159669564}, "ER100": {"OBJECTID": 5705, "LOCATION": "LONG ST E", "SIDE_OF_STREET": "North", "BLOCKFACE": "LAZELLE ST - THIRD ST", "METER_STATUS": "Bagged - Paid", "TOW_AWAY_HOURS": null, "METER_TIME": 120, "HANDICAP": 0, "HOURS_OPERATION": "8 AM - 10 PM", "IN_SERVICE": 14, "VALET_HOURS": null, "RATE": " $1.50", "FOOD_SERVICE_HOURS": null, "TAXI_ZONE_HOURS": null, "CHARGING_STATION": "No", "CHARGING_STATION_STATUS": null, "LATITUDE": 39.96536835091284, "LONGITUDE": -82.9982055041124}, "ER300": {"OBJECTID": 5716, "LOCATION": "LONG ST E", "SIDE_OF_STREET": "North", "BLOCKFACE": "FIFTH ST - NEILSTON ST", "METER_STATUS": "Bagged - Paid", "TOW_AWAY_HOURS": "4PM - 6PM", "METER_TIME": 120, "HANDICAP": 0, "HOURS_OPERATION": "8 AM - 10 PM", "IN_SERVICE": 14, "VALET_HOURS": null, "RATE": " $2.25", "FOOD_SERVICE_HOURS": null, "TAXI_ZONE_HOURS": null, "CHARGING_STATION": "No", "CHARGING_STATION_STATUS": null, "LATITUDE": 39.96572527849214, "LONGITUDE": -82.99512631435098}, "ER352": {"OBJECTID": 5722, "LOCATION": "LONG ST E", "SIDE_OF_STREET": "North", "BLOCKFACE": "NEILSTON ST - SIXTH ST", "METER_STATUS": "Operational", "TOW_AWAY_HOURS": "4PM - 6PM", "METER_TIME": 120, "HANDICAP": 0, "HOURS_OPERATION": "8 AM - 10 PM", "IN_SERVICE": 14, "VALET_HOURS": null, "RATE": " $2.25", "FOOD_SERVICE_HOURS": null, "TAXI_ZONE_HOURS": null, "CHARGING_STATION": "No", "CHARGING_STATION_STATUS": null, "LATITUDE": 39.965877559412455, "LONGITUDE": -82.99378504120634}, "ER366": {"OBJECTID": 5727, "LOCATION": "LONG ST E", "SIDE_OF_STREET": "North", "BLOCKFACE": "NEILSTON ST - SIXTH ST", "METER_STATUS": "Operational", "TOW_AWAY_HOURS": "4PM - 6PM", "METER_TIME": 120, "HANDICAP": 0, "HOURS_OPERATION": "8 AM - 10 PM", "IN_SERVICE": 14, "VALET_HOURS": null, "RATE": " $2.25", "FOOD_SERVICE_HOURS": null, "TAXI_ZONE_HOURS": null, "CHARGING_STATION": "No", "CHARGING_STATION_STATUS": null, "LATITUDE": 39.96594817579735, "LONGITUDE": -82.99321535363363}, "ER506": {"OBJECTID": 5733, "LOCATION": "LONG ST E", "SIDE_OF_STREET": "North", "BLOCKFACE": "CLEVELAND AVE - WASHINGTON AVE", "METER_STATUS": "Operational", "TOW_AWAY_HOURS": null, "METER_TIME": 720, "HANDICAP": 0, "HOURS_OPERATION": "6 AM - 10 PM", "IN_SERVICE": 16, "VALET_HOURS": null, "RATE": " $4.80", "FOOD_SERVICE_HOURS": null, "TAXI_ZONE_HOURS": null, "CHARGING_STATION": "No", "CHARGING_STATION_STATUS": null, "LATITUDE": 39.966336040655094, "LONGITUDE": -82.98997707204204}, "B540": {"OBJECTID": 7042, "LOCATION": "FRONT ST S", "SIDE_OF_STREET": "East", "BLOCKFACE": "BECK ST - HOSTER ST", "METER_STATUS": "Operational", "TOW_AWAY_HOURS": "0", "METER_TIME": 180, "HANDICAP": 0, "HOURS_OPERATION": "8 AM - 10 PM", "IN_SERVICE": 14, "VALET_HOURS": null, "RATE": " $2.25", "FOOD_SERVICE_HOURS": null, "TAXI_ZONE_HOURS": null, "CHARGING_STATION": "No", "CHARGING_STATION_STATUS": null, "LATITUDE": 39.950719795372926, "LONGITUDE": -83.00012891181208}, "B506": {"OBJECTID": 7048, "LOCATION": "FRONT ST S", "SIDE_OF_STREET": "East", "BLOCKFACE": "BLENKNER ST - LIVINGSTON AVE", "METER_STATUS": "Operational", "TOW_AWAY_HOURS": "0", "METER_TIME": 180, "HANDICAP": 0, "HOURS_OPERATION": "8 AM - 10 PM", "IN_SERVICE": 14, "VALET_HOURS": null, "RATE": " $2.25", "FOOD_SERVICE_HOURS": null, "TAXI_ZONE_HOURS": null, "CHARGING_STATION": "No", "CHARGING_STATION_STATUS": null, "LATITUDE": 39.95232160330377, "LONGITUDE": -83.00044383359858}, "SI554": {"OBJECTID": 7053, "LOCATION": "FRONT ST S", "SIDE_OF_STREET": "East", "BLOCKFACE": "MOUND ST - NOBLE ST", "METER_STATUS": "Meter & Post Removed", "TOW_AWAY_HOURS": "7 AM - 9 AM & 4 PM - 6 PM", "METER_TIME": 120, "HANDICAP": 0, "HOURS_OPERATION": "9 AM - 4 PM", "IN_SERVICE": 7, "VALET_HOURS": null, "RATE": " $1.50", "FOOD_SERVICE_HOURS": null, "TAXI_ZONE_HOURS": null, "CHARGING_STATION": "No", "CHARGING_STATION_STATUS": null, "LATITUDE": 39.954928593153944, "LONGITUDE": -83.00093464574464}, "SI450": {"OBJECTID": 7058, "LOCATION": "FRONT ST S", "SIDE_OF_STREET": "East", "BLOCKFACE": "CHERRY ST - MAIN ST", "METER_STATUS": "Meter & Post Removed", "TOW_AWAY_HOURS": "7AM - 9AM - 4PM - 6PM", "METER_TIME": 120, "HANDICAP": 0, "HOURS_OPERATION": "9 AM - 4 PM", "IN_SERVICE": 7, "VALET_HOURS": null, "RATE": " $1.50", "FOOD_SERVICE_HOURS": null, "TAXI_ZONE_HOURS": null, "CHARGING_STATION": "No", "CHARGING_STATION_STATUS": null, "LATITUDE": 39.956500690171495, "LONGITUDE": -83.00124310618538}, "NI50": {"OBJECTID": 7064, "LOCATION": "FRONT ST N", "SIDE_OF_STREET": "East", "BLOCKFACE": "GAY ST - LYNN ST", "METER_STATUS": "Meter & Post Removed", "TOW_AWAY_HOURS": "7 AM - 9 AM & 4 PM - 6 PM", "METER_TIME": 180, "HANDICAP": 0, "HOURS_OPERATION": "6 PM - 10 PM", "IN_SERVICE": null, "VALET_HOURS": null, "RATE": " $2.25", "FOOD_SERVICE_HOURS": null, "TAXI_ZONE_HOURS": null, "CHARGING_STATION": "No", "CHARGING_STATION_STATUS": null, "LATITUDE": 39.96315534942269, "LONGITUDE": -83.00252607683915}, "NI204": {"OBJECTID": 7069, "LOCATION": "FRONT ST N", "SIDE_OF_STREET": "East", "BLOCKFACE": "LAFAYETTE ST - LONG ST", "METER_STATUS": "Operational", "TOW_AWAY_HOURS": null, "METER_TIME": 180, "HANDICAP": 0, "HOURS_OPERATION": "8 AM - 10 PM", "IN_SERVICE": 14, "VALET_HOURS": null, "RATE": " $2.25", "FOOD_SERVICE_HOURS": null, "TAXI_ZONE_HOURS": null, "CHARGING_STATION": "No", "CHARGING_STATION_STATUS": null, "LATITUDE": 39.96508374446847, "LONGITUDE": -83.00290119972725}, "EE326": {"OBJECTID": 5373, "LOCATION": "MAIN ST E", "SIDE_OF_STREET": "North", "BLOCKFACE": "FIFTH ST - GRANT AVE", "METER_STATUS": "Operational", "TOW_AWAY_HOURS": "4PM - 6PM", "METER_TIME": 720, "HANDICAP": 0, "HOURS_OPERATION": "6 AM - 6 PM", "IN_SERVICE": 12, "VALET_HOURS": null, "RATE": " $4.80", "FOOD_SERVICE_HOURS": null, "TAXI_ZONE_HOURS": null, "CHARGING_STATION": "No", "CHARGING_STATION_STATUS": null, "LATITUDE": 39.95711201776441, "LONGITUDE": -82.99174962950653}, "EE338": {"OBJECTID": 5378, "LOCATION": "MAIN ST E", "SIDE_OF_STREET": "North", "BLOCKFACE": "FIFTH ST - GRANT AVE", "METER_STATUS": "Meter & Post Removed", "TOW_AWAY_HOURS": "4PM - 6PM", "METER_TIME": 720, "HANDICAP": 0, "HOURS_OPERATION": "6 AM - 6 PM", "IN_SERVICE": 12, "VALET_HOURS": null, "RATE": " $4.80", "FOOD_SERVICE_HOURS": null, "TAXI_ZONE_HOURS": null, "CHARGING_STATION": "No", "CHARGING_STATION_STATUS": null, "LATITUDE": 39.957171742280906, "LONGITUDE": -82.99124274034715}, "EC1": {"OBJECTID": 6166, "LOCATION": "MOUND ST E", "SIDE_OF_STREET": "South", "BLOCKFACE": "CROSBY AL - HIGH ST", "METER_STATUS": "Operational", "TOW_AWAY_HOURS": null, "METER_TIME": 180, "HANDICAP": 0, "HOURS_OPERATION": "8 AM - 10 PM", "IN_SERVICE": 14, "VALET_HOURS": null, "RATE": " $2.25", "FOOD_SERVICE_HOURS": null, "TAXI_ZONE_HOURS": null, "CHARGING_STATION": "No", "CHARGING_STATION_STATUS": null, "LATITUDE": 39.95476906445822, "LONGITUDE": -82.99888065753278}, "EC11": {"OBJECTID": 6171, "LOCATION": "MOUND ST E", "SIDE_OF_STREET": "South", "BLOCKFACE": "CROSBY AL - HIGH ST", "METER_STATUS": "Meter & Post Removed", "TOW_AWAY_HOURS": null, "METER_TIME": 180, "HANDICAP": 0, "HOURS_OPERATION": "8 AM - 10 PM", "IN_SERVICE": 14, "VALET_HOURS": null, "RATE": " $2.25", "FOOD_SERVICE_HOURS": null, "TAXI_ZONE_HOURS": null, "CHARGING_STATION": "No", "CHARGING_STATION_STATUS": null, "LATITUDE": 39.95480611652453, "LONGITUDE": -82.99850514919984}, "EC31": {"OBJECTID": 6176, "LOCATION": "MOUND ST E", "SIDE_OF_STREET": "South", "BLOCKFACE": "CROSBY AL - HIGH ST", "METER_STATUS": "Operational", "TOW_AWAY_HOURS": null, "METER_TIME": 180, "HANDICAP": 0, "HOURS_OPERATION": "8 AM - 10 PM", "IN_SERVICE": 14, "VALET_HOURS": null, "RATE": " $2.25", "FOOD_SERVICE_HOURS": null, "TAXI_ZONE_HOURS": null, "CHARGING_STATION": "No", "CHARGING_STATION_STATUS": null, "LATITUDE": 39.95487063995473, "LONGITUDE": -82.9979242620069}, "EU102": {"OBJECTID": 10878, "LOCATION": "HICKORY ST E", "SIDE_OF_STREET": null, "BLOCKFACE": "THIRD ST - LAZELLE ST", "METER_STATUS": "Operational", "TOW_AWAY_HOURS": null, "METER_TIME": 120, "HANDICAP": 0, "HOURS_OPERATION": "8 AM - 10 PM", "IN_SERVICE": 14, "VALET_HOURS": null, "RATE": " $1.50", "FOOD_SERVICE_HOURS": null, "TAXI_ZONE_HOURS": null, "CHARGING_STATION": "No", "CHARGING_STATION_STATUS": null, "LATITUDE": 39.96734297498109, "LONGITUDE": -82.99849151077761}, "EU104": {"OBJECTID": 10879, "LOCATION": "HICKORY ST E", "SIDE_OF_STREET": null, "BLOCKFACE": "THIRD ST - LAZELLE ST", "METER_STATUS": "Operational", "TOW_AWAY_HOURS": null, "METER_TIME": 120, "HANDICAP": 0, "HOURS_OPERATION": "8 AM - 10 PM", "IN_SERVICE": 14, "VALET_HOURS": null, "RATE": " $1.50", "FOOD_SERVICE_HOURS": null, "TAXI_ZONE_HOURS": null, "CHARGING_STATION": "No", "CHARGING_STATION_STATUS": null, "LATITUDE": 39.96735057768213, "LONGITUDE": -82.9984426680351}, "EU106": {"OBJECTID": 10880, "LOCATION": "HICKORY ST E", "SIDE_OF_STREET": null, "BLOCKFACE": "THIRD ST - LAZELLE ST", "METER_STATUS": "Operational", "TOW_AWAY_HOURS": null, "METER_TIME": 120, "HANDICAP": 0, "HOURS_OPERATION": "8 AM - 10 PM", "IN_SERVICE": 14, "VALET_HOURS": null, "RATE": " $1.50", "FOOD_SERVICE_HOURS": null, "TAXI_ZONE_HOURS": null, "CHARGING_STATION": "No", "CHARGING_STATION_STATUS": null, "LATITUDE": 39.96737495656847, "LONGITUDE": -82.99822970409537}, "EU155": {"OBJECTID": 10882, "LOCATION": "HICKORY SY E", "SIDE_OF_STREET": null, "BLOCKFACE": "LAZELLE ST - FOURTH ST", "METER_STATUS": "Operational", "TOW_AWAY_HOURS": null, "METER_TIME": 120, "HANDICAP": 0, "HOURS_OPERATION": "8 AM - 10 PM", "IN_SERVICE": 14, "VALET_HOURS": null, "RATE": " $1.50", "FOOD_SERVICE_HOURS": null, "TAXI_ZONE_HOURS": null, "CHARGING_STATION": "No", "CHARGING_STATION_STATUS": null, "LATITUDE": 39.967378768727166, "LONGITUDE": -82.99748290681082}, "NO306": {"OBJECTID": 10887, "LOCATION": "FOURTH ST N", "SIDE_OF_STREET": null, "BLOCKFACE": "SPRING ST - CHESTNUT ST", "METER_STATUS": "Operational", "TOW_AWAY_HOURS": "7 AM - 9 AM & 4 PM - 6 PM", "METER_TIME": 120, "HANDICAP": 0, "HOURS_OPERATION": "9AM - 4PM & 6PM - 10PM", "IN_SERVICE": 11, "VALET_HOURS": null, "RATE": " $1.50", "FOOD_SERVICE_HOURS": null, "TAXI_ZONE_HOURS": null, "CHARGING_STATION": "No", "CHARGING_STATION_STATUS": null, "LATITUDE": 39.967436100761205, "LONGITUDE": -82.99703882248572}, "EU100": {"OBJECTID": 10877, "LOCATION": "HICKORY ST E", "SIDE_OF_STREET": null, "BLOCKFACE": "THIRD ST - LAZELLE ST", "METER_STATUS": "Operational", "TOW_AWAY_HOURS": null, "METER_TIME": 120, "HANDICAP": 0, "HOURS_OPERATION": "8 AM - 10 PM", "IN_SERVICE": 14, "VALET_HOURS": null, "RATE": " $1.50", "FOOD_SERVICE_HOURS": null, "TAXI_ZONE_HOURS": null, "CHARGING_STATION": "No", "CHARGING_STATION_STATUS": null, "LATITUDE": 39.96731891181436, "LONGITUDE": -82.99870573042311}, "NO308": {"OBJECTID": 10888, "LOCATION": "FOURTH ST N", "SIDE_OF_STREET": null, "BLOCKFACE": "SPRING ST - CHESTNUT ST", "METER_STATUS": "Operational", "TOW_AWAY_HOURS": "7 AM - 9 AM & 4 PM - 6 PM", "METER_TIME": 120, "HANDICAP": 0, "HOURS_OPERATION": "9AM - 4PM & 6PM - 10PM", "IN_SERVICE": 11, "VALET_HOURS": null, "RATE": " $1.50", "FOOD_SERVICE_HOURS": null, "TAXI_ZONE_HOURS": null, "CHARGING_STATION": "No", "CHARGING_STATION_STATUS": null, "LATITUDE": 39.96750404285723, "LONGITUDE": -82.99705269930934}, "EU151": {"OBJECTID": 10881, "LOCATION": "HICKORY SY E", "SIDE_OF_STREET": null, "BLOCKFACE": "LAZELLE ST - FOURTH ST", "METER_STATUS": "Meter & Post Removed", "TOW_AWAY_HOURS": null, "METER_TIME": 120, "HANDICAP": 0, "HOURS_OPERATION": "8 AM - 10 PM", "IN_SERVICE": 14, "VALET_HOURS": null, "RATE": " $1.50", "FOOD_SERVICE_HOURS": null, "TAXI_ZONE_HOURS": null, "CHARGING_STATION": "No", "CHARGING_STATION_STATUS": null, "LATITUDE": 39.96733461387631, "LONGITUDE": -82.99788546586366}, "NO300": {"OBJECTID": 10884, "LOCATION": "FOURTH ST N", "SIDE_OF_STREET": null, "BLOCKFACE": "SPRING ST - CHESTNUT ST", "METER_STATUS": "Operational", "TOW_AWAY_HOURS": "7 AM - 9 AM & 4 PM - 6 PM", "METER_TIME": 120, "HANDICAP": 0, "HOURS_OPERATION": "9AM - 4PM & 6PM - 10PM", "IN_SERVICE": 11, "VALET_HOURS": null, "RATE": " $1.50", "FOOD_SERVICE_HOURS": null, "TAXI_ZONE_HOURS": null, "CHARGING_STATION": "No", "CHARGING_STATION_STATUS": null, "LATITUDE": 39.96725964765997, "LONGITUDE": -82.99700256752786}, "NO302": {"OBJECTID": 10885, "LOCATION": "FOURTH ST N", "SIDE_OF_STREET": null, "BLOCKFACE": "SPRING ST - CHESTNUT ST", "METER_STATUS": "Operational", "TOW_AWAY_HOURS": "7 AM - 9 AM & 4 PM - 6 PM", "METER_TIME": 120, "HANDICAP": 0, "HOURS_OPERATION": "9AM - 4PM & 6PM - 10PM", "IN_SERVICE": 11, "VALET_HOURS": null, "RATE": " $1.50", "FOOD_SERVICE_HOURS": null, "TAXI_ZONE_HOURS": null, "CHARGING_STATION": "No", "CHARGING_STATION_STATUS": null, "LATITUDE": 39.967308457256955, "LONGITUDE": -82.99701112786951}, "NO304": {"OBJECTID": 10886, "LOCATION": "FOURTH ST N", "SIDE_OF_STREET": null, "BLOCKFACE": "SPRING ST - CHESTNUT ST", "METER_STATUS": "Operational", "TOW_AWAY_HOURS": "7 AM - 9 AM & 4 PM - 6 PM", "METER_TIME": 120, "HANDICAP": 0, "HOURS_OPERATION": "9AM - 4PM & 6PM - 10PM", "IN_SERVICE": 11, "VALET_HOURS": null, "RATE": " $1.50", "FOOD_SERVICE_HOURS": null, "TAXI_ZONE_HOURS": null, "CHARGING_STATION": "No", "CHARGING_STATION_STATUS": null, "LATITUDE": 39.96737433963527, "LONGITUDE": -82.9970249899059}, "NO310": {"OBJECTID": 11193, "LOCATION": "FOURTH ST N", "SIDE_OF_STREET": null, "BLOCKFACE": "SPRING ST - CHESTNUT ST", "METER_STATUS": "Operational", "TOW_AWAY_HOURS": "7 AM - 9 AM & 4 PM - 6 PM", "METER_TIME": 120, "HANDICAP": 0, "HOURS_OPERATION": "9AM - 4PM & 6PM - 10PM", "IN_SERVICE": 11, "VALET_HOURS": null, "RATE": " $1.50", "FOOD_SERVICE_HOURS": null, "TAXI_ZONE_HOURS": null, "CHARGING_STATION": "No", "CHARGING_STATION_STATUS": null, "LATITUDE": 39.967571985850675, "LONGITUDE": -82.99706657616646}, "NO312": {"OBJECTID": 11194, "LOCATION": "FOURTH ST N", "SIDE_OF_STREET": null, "BLOCKFACE": "SPRING ST - CHESTNUT ST", "METER_STATUS": "Operational", "TOW_AWAY_HOURS": "7 AM - 9 AM & 4 PM - 6 PM", "METER_TIME": 120, "HANDICAP": 0, "HOURS_OPERATION": "9AM - 4PM & 6PM - 10PM", "IN_SERVICE": 11, "VALET_HOURS": null, "RATE": " $1.50", "FOOD_SERVICE_HOURS": null, "TAXI_ZONE_HOURS": null, "CHARGING_STATION": "No", "CHARGING_STATION_STATUS": null, "LATITUDE": 39.96764200080891, "LONGITUDE": -82.99707778971457}, "NO314": {"OBJECTID": 11195, "LOCATION": "FOURTH ST N", "SIDE_OF_STREET": null, "BLOCKFACE": "SPRING ST - CHESTNUT ST", "METER_STATUS": "Operational", "TOW_AWAY_HOURS": "7 AM - 9 AM & 4 PM - 6 PM", "METER_TIME": 120, "HANDICAP": 0, "HOURS_OPERATION": "9AM - 4PM & 6PM - 10PM", "IN_SERVICE": 11, "VALET_HOURS": null, "RATE": " $1.50", "FOOD_SERVICE_HOURS": null, "TAXI_ZONE_HOURS": null, "CHARGING_STATION": "No", "CHARGING_STATION_STATUS": null, "LATITUDE": 39.96771200442548, "LONGITUDE": -82.9970916801964}, "NO350": {"OBJECTID": 11202, "LOCATION": "FOURTH ST N", "SIDE_OF_STREET": null, "BLOCKFACE": "SPRING ST - CHESTNUT ST", "METER_STATUS": "Operational", "TOW_AWAY_HOURS": "7 AM - 9 AM & 4 PM - 6 PM", "METER_TIME": 120, "HANDICAP": 0, "HOURS_OPERATION": "9AM - 4PM & 6PM - 10PM", "IN_SERVICE": 11, "VALET_HOURS": null, "RATE": " $1.50", "FOOD_SERVICE_HOURS": null, "TAXI_ZONE_HOURS": null, "CHARGING_STATION": "No", "CHARGING_STATION_STATUS": null, "LATITUDE": 39.968362663914775, "LONGITUDE": -82.99721149639956}, "NO316": {"OBJECTID": 11196, "LOCATION": "FOURTH ST N", "SIDE_OF_STREET": null, "BLOCKFACE": "SPRING ST - CHESTNUT ST", "METER_STATUS": "Operational", "TOW_AWAY_HOURS": "7 AM - 9 AM & 4 PM - 6 PM", "METER_TIME": 120, "HANDICAP": 0, "HOURS_OPERATION": "9AM - 4PM & 6PM - 10PM", "IN_SERVICE": 11, "VALET_HOURS": null, "RATE": " $1.50", "FOOD_SERVICE_HOURS": null, "TAXI_ZONE_HOURS": null, "CHARGING_STATION": "No", "CHARGING_STATION_STATUS": null, "LATITUDE": 39.96778408000224, "LONGITUDE": -82.99710290853585}, "NO358": {"OBJECTID": 11198, "LOCATION": "FOURTH ST N", "SIDE_OF_STREET": null, "BLOCKFACE": "SPRING ST - CHESTNUT ST", "METER_STATUS": "Operational", "TOW_AWAY_HOURS": "7 AM - 9 AM & 4 PM - 6 PM", "METER_TIME": 120, "HANDICAP": 1, "HOURS_OPERATION": "9AM - 4PM & 6PM - 10PM", "IN_SERVICE": 11, "VALET_HOURS": null, "RATE": " $1.50", "FOOD_SERVICE_HOURS": null, "TAXI_ZONE_HOURS": null, "CHARGING_STATION": "No", "CHARGING_STATION_STATUS": null, "LATITUDE": 39.968611767955174, "LONGITUDE": -82.99726684188813}, "NO356": {"OBJECTID": 11199, "LOCATION": "FOURTH ST N", "SIDE_OF_STREET": null, "BLOCKFACE": "SPRING ST - CHESTNUT ST", "METER_STATUS": "Operational", "TOW_AWAY_HOURS": "7 AM - 9 AM & 4 PM - 6 PM", "METER_TIME": 120, "HANDICAP": 0, "HOURS_OPERATION": "9AM - 4PM & 6PM - 10PM", "IN_SERVICE": 11, "VALET_HOURS": null, "RATE": " $1.50", "FOOD_SERVICE_HOURS": null, "TAXI_ZONE_HOURS": null, "CHARGING_STATION": "No", "CHARGING_STATION_STATUS": null, "LATITUDE": 39.96855000688159, "LONGITUDE": -82.99725300887154}, "NO354": {"OBJECTID": 11200, "LOCATION": "FOURTH ST N", "SIDE_OF_STREET": null, "BLOCKFACE": "SPRING ST - CHESTNUT ST", "METER_STATUS": "Operational", "TOW_AWAY_HOURS": "7 AM - 9 AM & 4 PM - 6 PM", "METER_TIME": 120, "HANDICAP": 0, "HOURS_OPERATION": "9AM - 4PM & 6PM - 10PM", "IN_SERVICE": 11, "VALET_HOURS": null, "RATE": " $1.50", "FOOD_SERVICE_HOURS": null, "TAXI_ZONE_HOURS": null, "CHARGING_STATION": "No", "CHARGING_STATION_STATUS": null, "LATITUDE": 39.96848412455242, "LONGITUDE": -82.99723914755486}, "NO352": {"OBJECTID": 11201, "LOCATION": "FOURTH ST N", "SIDE_OF_STREET": null, "BLOCKFACE": "SPRING ST - CHESTNUT ST", "METER_STATUS": "Operational", "TOW_AWAY_HOURS": "7 AM - 9 AM & 4 PM - 6 PM", "METER_TIME": 120, "HANDICAP": 0, "HOURS_OPERATION": "9AM - 4PM & 6PM - 10PM", "IN_SERVICE": 11, "VALET_HOURS": null, "RATE": " $1.50", "FOOD_SERVICE_HOURS": null, "TAXI_ZONE_HOURS": null, "CHARGING_STATION": "No", "CHARGING_STATION_STATUS": null, "LATITUDE": 39.96842442499733, "LONGITUDE": -82.99722532934194}, "EI642": {"OBJECTID": 5868, "LOCATION": "TOWN ST E", "SIDE_OF_STREET": "North", "BLOCKFACE": "SELINA AL - WASHINGTON AVE", "METER_STATUS": "Operational", "TOW_AWAY_HOURS": null, "METER_TIME": 120, "HANDICAP": 0, "HOURS_OPERATION": "8 AM - 6 PM", "IN_SERVICE": 10, "VALET_HOURS": null, "RATE": " $1.50", "FOOD_SERVICE_HOURS": null, "TAXI_ZONE_HOURS": null, "CHARGING_STATION": "No", "CHARGING_STATION_STATUS": null, "LATITUDE": 39.96035391011376, "LONGITUDE": -82.98726230843687}, "EI632": {"OBJECTID": 5873, "LOCATION": "TOWN ST E", "SIDE_OF_STREET": "North", "BLOCKFACE": "SELINA AL - WASHINGTON AVE", "METER_STATUS": "Operational", "TOW_AWAY_HOURS": null, "METER_TIME": 120, "HANDICAP": 0, "HOURS_OPERATION": "8 AM - 6 PM", "IN_SERVICE": 10, "VALET_HOURS": null, "RATE": " $1.50", "FOOD_SERVICE_HOURS": null, "TAXI_ZONE_HOURS": null, "CHARGING_STATION": "No", "CHARGING_STATION_STATUS": null, "LATITUDE": 39.96030653133773, "LONGITUDE": -82.98766881084103}, "K173": {"OBJECTID": 6659, "LOCATION": "RUSSELL ST E", "SIDE_OF_STREET": "South", "BLOCKFACE": "HIGH ST - PEARL ST", "METER_STATUS": "Operational", "TOW_AWAY_HOURS": null, "METER_TIME": 180, "HANDICAP": 0, "HOURS_OPERATION": "8 AM - 10 PM", "IN_SERVICE": 14, "VALET_HOURS": null, "RATE": " $2.25", "FOOD_SERVICE_HOURS": null, "TAXI_ZONE_HOURS": null, "CHARGING_STATION": "No", "CHARGING_STATION_STATUS": null, "LATITUDE": 39.975586735552746, "LONGITUDE": -83.00277583424015}, "K222": {"OBJECTID": 6664, "LOCATION": "RUSSELL ST W", "SIDE_OF_STREET": "North", "BLOCKFACE": "PARK ST - HIGH ST", "METER_STATUS": "Operational", "TOW_AWAY_HOURS": null, "METER_TIME": 180, "HANDICAP": 0, "HOURS_OPERATION": "8 AM - 10 PM", "IN_SERVICE": 14, "VALET_HOURS": null, "RATE": " $2.25", "FOOD_SERVICE_HOURS": null, "TAXI_ZONE_HOURS": null, "CHARGING_STATION": "No", "CHARGING_STATION_STATUS": null, "LATITUDE": 39.97546706750685, "LONGITUDE": -83.00436925877396}, "K208": {"OBJECTID": 6670, "LOCATION": "RUSSELL ST W", "SIDE_OF_STREET": "North", "BLOCKFACE": "PARK ST - HIGH ST", "METER_STATUS": "Operational", "TOW_AWAY_HOURS": null, "METER_TIME": 180, "HANDICAP": 0, "HOURS_OPERATION": "8 AM - 10 PM", "IN_SERVICE": 14, "VALET_HOURS": null, "RATE": " $2.25", "FOOD_SERVICE_HOURS": null, "TAXI_ZONE_HOURS": null, "CHARGING_STATION": "No", "CHARGING_STATION_STATUS": null, "LATITUDE": 39.97553699184565, "LONGITUDE": -83.00380478462817}, "UW900": {"OBJECTID": 6675, "LOCATION": "NEIL AVE N", "SIDE_OF_STREET": "East", "BLOCKFACE": "NINTH AVE - TENTH AVE", "METER_STATUS": "Operational", "TOW_AWAY_HOURS": null, "METER_TIME": 120, "HANDICAP": 0, "HOURS_OPERATION": "8 AM - 10 PM", "IN_SERVICE": 14, "VALET_HOURS": null, "RATE": " $1.50", "FOOD_SERVICE_HOURS": null, "TAXI_ZONE_HOURS": null, "CHARGING_STATION": "No", "CHARGING_STATION_STATUS": null, "LATITUDE": 39.993450276315585, "LONGITUDE": -83.01417645176727}, "UW910": {"OBJECTID": 6686, "LOCATION": "NEIL AVE N", "SIDE_OF_STREET": "East", "BLOCKFACE": "NINTH AVE - TENTH AVE", "METER_STATUS": "Operational", "TOW_AWAY_HOURS": null, "METER_TIME": 120, "HANDICAP": 0, "HOURS_OPERATION": "8 AM - 10 PM", "IN_SERVICE": 14, "VALET_HOURS": null, "RATE": " $1.50", "FOOD_SERVICE_HOURS": null, "TAXI_ZONE_HOURS": null, "CHARGING_STATION": "No", "CHARGING_STATION_STATUS": null, "LATITUDE": 39.99377019746918, "LONGITUDE": -83.01424341310945}, "UW919": {"OBJECTID": 6691, "LOCATION": "NEIL AVE N", "SIDE_OF_STREET": "West", "BLOCKFACE": "NINTH AVE - TENTH AVE", "METER_STATUS": "Operational", "TOW_AWAY_HOURS": null, "METER_TIME": 120, "HANDICAP": 0, "HOURS_OPERATION": "8 AM - 10 PM", "IN_SERVICE": 14, "VALET_HOURS": null, "RATE": " $1.50", "FOOD_SERVICE_HOURS": null, "TAXI_ZONE_HOURS": null, "CHARGING_STATION": "No", "CHARGING_STATION_STATUS": null, "LATITUDE": 39.99404171790524, "LONGITUDE": -83.0145093708935}, "WG100": {"OBJECTID": 9249, "LOCATION": "RICH ST W", "SIDE_OF_STREET": "North", "BLOCKFACE": "LUDLOW ST - FRONT ST", "METER_STATUS": "Operational", "TOW_AWAY_HOURS": null, "METER_TIME": 120, "HANDICAP": 0, "HOURS_OPERATION": "8 AM - 10 PM", "IN_SERVICE": 14, "VALET_HOURS": null, "RATE": " $1.50", "FOOD_SERVICE_HOURS": null, "TAXI_ZONE_HOURS": null, "CHARGING_STATION": "No", "CHARGING_STATION_STATUS": null, "LATITUDE": 39.957328764053784, "LONGITUDE": -83.00171862303529}, "WN2309": {"OBJECTID": 9429, "LOCATION": "BROAD ST W", "SIDE_OF_STREET": "South", "BLOCKFACE": "RICHARDSON AVE - TERRACE AVE", "METER_STATUS": "Meter & Post Removed", "TOW_AWAY_HOURS": null, "METER_TIME": 120, "HANDICAP": 0, "HOURS_OPERATION": "8 AM - 6 PM", "IN_SERVICE": 10, "VALET_HOURS": null, "RATE": " $1.50", "FOOD_SERVICE_HOURS": null, "TAXI_ZONE_HOURS": null, "CHARGING_STATION": "No", "CHARGING_STATION_STATUS": null, "LATITUDE": 39.955184927863655, "LONGITUDE": -83.06723568760535}, "WN2407": {"OBJECTID": 9440, "LOCATION": "BROAD ST W", "SIDE_OF_STREET": "South", "BLOCKFACE": "OGDEN AVE - BURGESS AVE", "METER_STATUS": "Meter & Post Removed", "TOW_AWAY_HOURS": null, "METER_TIME": 120, "HANDICAP": 0, "HOURS_OPERATION": "8 AM - 6 PM", "IN_SERVICE": 10, "VALET_HOURS": null, "RATE": " $1.50", "FOOD_SERVICE_HOURS": null, "TAXI_ZONE_HOURS": null, "CHARGING_STATION": "No", "CHARGING_STATION_STATUS": null, "LATITUDE": 39.95505246545382, "LONGITUDE": -83.07003592264441}, "WN2055": {"OBJECTID": 9446, "LOCATION": "BROAD ST W", "SIDE_OF_STREET": "South", "BLOCKFACE": "WHEATLAND AVE - HIGHLAND AVE", "METER_STATUS": "Meter & Post Removed", "TOW_AWAY_HOURS": null, "METER_TIME": 120, "HANDICAP": 0, "HOURS_OPERATION": "8 AM - 6 PM", "IN_SERVICE": 10, "VALET_HOURS": null, "RATE": " $1.50", "FOOD_SERVICE_HOURS": null, "TAXI_ZONE_HOURS": null, "CHARGING_STATION": "No", "CHARGING_STATION_STATUS": null, "LATITUDE": 39.955460676049654, "LONGITUDE": -83.06142086887242}, "WN2021": {"OBJECTID": 9451, "LOCATION": "BROAD ST W", "SIDE_OF_STREET": "South", "BLOCKFACE": "HIGHLAND AVE - CLARENDON AVE", "METER_STATUS": "Meter & Post Removed", "TOW_AWAY_HOURS": null, "METER_TIME": 120, "HANDICAP": 0, "HOURS_OPERATION": "8 AM - 6 PM", "IN_SERVICE": 10, "VALET_HOURS": null, "RATE": " $1.50", "FOOD_SERVICE_HOURS": null, "TAXI_ZONE_HOURS": null, "CHARGING_STATION": "No", "CHARGING_STATION_STATUS": null, "LATITUDE": 39.95551702360564, "LONGITUDE": -83.06026343603548}, "WK58": {"OBJECTID": 6312, "LOCATION": "STATE ST W", "SIDE_OF_STREET": "North", "BLOCKFACE": "FRONT ST - WALL ST", "METER_STATUS": "Operational", "TOW_AWAY_HOURS": "3PM - 6PM", "METER_TIME": 180, "HANDICAP": 0, "HOURS_OPERATION": "8 AM - 10 PM", "IN_SERVICE": 14, "VALET_HOURS": null, "RATE": " $2.25", "FOOD_SERVICE_HOURS": null, "TAXI_ZONE_HOURS": null, "CHARGING_STATION": "No", "CHARGING_STATION_STATUS": null, "LATITUDE": 39.96004757348229, "LONGITUDE": -83.00176089771183}, "EK154": {"OBJECTID": 6318, "LOCATION": "STATE ST E", "SIDE_OF_STREET": "North", "BLOCKFACE": "FOURTH ST - LAZELLE ST", "METER_STATUS": "Operational", "TOW_AWAY_HOURS": "7 AM - 9 AM & 4 PM - 6 PM", "METER_TIME": 120, "HANDICAP": 0, "HOURS_OPERATION": "9AM - 4PM & 6PM - 10PM", "IN_SERVICE": 11, "VALET_HOURS": null, "RATE": " $1.50", "FOOD_SERVICE_HOURS": null, "TAXI_ZONE_HOURS": null, "CHARGING_STATION": "No", "CHARGING_STATION_STATUS": null, "LATITUDE": 39.960680266458155, "LONGITUDE": -82.99631361173424}, "EK250": {"OBJECTID": 6323, "LOCATION": "STATE ST E", "SIDE_OF_STREET": "North", "BLOCKFACE": "FIFTH ST - YOUNG ST", "METER_STATUS": "Bagged - Paid", "TOW_AWAY_HOURS": null, "METER_TIME": 180, "HANDICAP": 0, "HOURS_OPERATION": "8 AM - 6 PM", "IN_SERVICE": 10, "VALET_HOURS": null, "RATE": " $2.25", "FOOD_SERVICE_HOURS": null, "TAXI_ZONE_HOURS": null, "CHARGING_STATION": "No", "CHARGING_STATION_STATUS": null, "LATITUDE": 39.96086550812001, "LONGITUDE": -82.99471248522977}, "EK300": {"OBJECTID": 6328, "LOCATION": "STATE ST E", "SIDE_OF_STREET": "North", "BLOCKFACE": "FIFTH ST - SIXTH ST", "METER_STATUS": "Operational", "TOW_AWAY_HOURS": null, "METER_TIME": 120, "HANDICAP": 0, "HOURS_OPERATION": "8 AM - 6 PM", "IN_SERVICE": 10, "VALET_HOURS": null, "RATE": " $1.50", "FOOD_SERVICE_HOURS": null, "TAXI_ZONE_HOURS": null, "CHARGING_STATION": "No", "CHARGING_STATION_STATUS": null, "LATITUDE": 39.96099670587799, "LONGITUDE": -82.99354474502074}, "EK312": {"OBJECTID": 6334, "LOCATION": "STATE ST E", "SIDE_OF_STREET": "North", "BLOCKFACE": "FIFTH ST - SIXTH ST", "METER_STATUS": "Operational", "TOW_AWAY_HOURS": null, "METER_TIME": 120, "HANDICAP": 0, "HOURS_OPERATION": "8 AM - 6 PM", "IN_SERVICE": 10, "VALET_HOURS": null, "RATE": " $1.50", "FOOD_SERVICE_HOURS": null, "TAXI_ZONE_HOURS": null, "CHARGING_STATION": "No", "CHARGING_STATION_STATUS": null, "LATITUDE": 39.96105870937685, "LONGITUDE": -82.99306294001465}, "EK408": {"OBJECTID": 6339, "LOCATION": "STATE ST E", "SIDE_OF_STREET": "North", "BLOCKFACE": "GRANT AVE - SIXTH ST", "METER_STATUS": "Operational", "TOW_AWAY_HOURS": null, "METER_TIME": 120, "HANDICAP": 0, "HOURS_OPERATION": "8 AM - 6 PM", "IN_SERVICE": 10, "VALET_HOURS": null, "RATE": " $1.50", "FOOD_SERVICE_HOURS": null, "TAXI_ZONE_HOURS": null, "CHARGING_STATION": "No", "CHARGING_STATION_STATUS": null, "LATITUDE": 39.96119535581158, "LONGITUDE": -82.9918219360298}, "EK430": {"OBJECTID": 6345, "LOCATION": "STATE ST E", "SIDE_OF_STREET": "North", "BLOCKFACE": "GRANT AVE - SIXTH ST", "METER_STATUS": "Operational", "TOW_AWAY_HOURS": null, "METER_TIME": 120, "HANDICAP": 0, "HOURS_OPERATION": "8 AM - 6 PM", "IN_SERVICE": 10, "VALET_HOURS": null, "RATE": " $1.50", "FOOD_SERVICE_HOURS": null, "TAXI_ZONE_HOURS": null, "CHARGING_STATION": "No", "CHARGING_STATION_STATUS": null, "LATITUDE": 39.9612983993209, "LONGITUDE": -82.99096768260793}, "NS112": {"OBJECTID": 6434, "LOCATION": "SIXTH ST N", "SIDE_OF_STREET": "East", "BLOCKFACE": "GAY ST - LONG ST", "METER_STATUS": "Operational", "TOW_AWAY_HOURS": "None", "METER_TIME": 720, "HANDICAP": 0, "HOURS_OPERATION": "6 PM - 10 PM", "IN_SERVICE": 16, "VALET_HOURS": null, "RATE": " $4.80", "FOOD_SERVICE_HOURS": null, "TAXI_ZONE_HOURS": null, "CHARGING_STATION": "No", "CHARGING_STATION_STATUS": null, "LATITUDE": 39.965135522537025, "LONGITUDE": -82.99250706515167}, "NR251": {"OBJECTID": 6439, "LOCATION": "NEILSTON ST N", "SIDE_OF_STREET": "West", "BLOCKFACE": "LAFAYETTE ST - SPRING ST", "METER_STATUS": "Operational", "TOW_AWAY_HOURS": null, "METER_TIME": 720, "HANDICAP": 0, "HOURS_OPERATION": "6 AM - 10 PM", "IN_SERVICE": 16, "VALET_HOURS": null, "RATE": " $4.80", "FOOD_SERVICE_HOURS": null, "TAXI_ZONE_HOURS": null, "CHARGING_STATION": "No", "CHARGING_STATION_STATUS": null, "LATITUDE": 39.966499859863404, "LONGITUDE": -82.99428569596826}, "NR375": {"OBJECTID": 6450, "LOCATION": "NEILSTON ST N", "SIDE_OF_STREET": "West", "BLOCKFACE": "McKEE AL - NAGHTEN ST", "METER_STATUS": "Operational", "TOW_AWAY_HOURS": null, "METER_TIME": 720, "HANDICAP": 0, "HOURS_OPERATION": "6 AM - 10 PM", "IN_SERVICE": 16, "VALET_HOURS": null, "RATE": " $4.80", "FOOD_SERVICE_HOURS": null, "TAXI_ZONE_HOURS": null, "CHARGING_STATION": "No", "CHARGING_STATION_STATUS": null, "LATITUDE": 39.96826378495072, "LONGITUDE": -82.99462200451114}, "NR403": {"OBJECTID": 6455, "LOCATION": "NEILSTON ST N", "SIDE_OF_STREET": "West", "BLOCKFACE": "MT VERNON AVE - NAGHTEN ST", "METER_STATUS": "Operational", "TOW_AWAY_HOURS": null, "METER_TIME": 720, "HANDICAP": 0, "HOURS_OPERATION": "8 AM - 10 PM", "IN_SERVICE": 14, "VALET_HOURS": null, "RATE": " $4.80", "FOOD_SERVICE_HOURS": null, "TAXI_ZONE_HOURS": null, "CHARGING_STATION": "No", "CHARGING_STATION_STATUS": null, "LATITUDE": 39.96895911080783, "LONGITUDE": -82.99465209219522}, "NS596": {"OBJECTID": 6461, "LOCATION": "SIXTH ST N", "SIDE_OF_STREET": "East", "BLOCKFACE": "GROVE ST - BUCKINGHAM ST", "METER_STATUS": "Operational", "TOW_AWAY_HOURS": null, "METER_TIME": 720, "HANDICAP": 0, "HOURS_OPERATION": "6 AM - 10 PM", "IN_SERVICE": 16, "VALET_HOURS": null, "RATE": " $4.80", "FOOD_SERVICE_HOURS": null, "TAXI_ZONE_HOURS": null, "CHARGING_STATION": "No", "CHARGING_STATION_STATUS": null, "LATITUDE": 39.970847545509976, "LONGITUDE": -82.99310436310004}, "NS702": {"OBJECTID": 6466, "LOCATION": "SIXTH ST N", "SIDE_OF_STREET": "East", "BLOCKFACE": "GROVE ST - BUCKINGHAM ST", "METER_STATUS": "Operational", "TOW_AWAY_HOURS": null, "METER_TIME": 720, "HANDICAP": 0, "HOURS_OPERATION": "6 AM - 10 PM", "IN_SERVICE": 16, "VALET_HOURS": null, "RATE": " $4.80", "FOOD_SERVICE_HOURS": null, "TAXI_ZONE_HOURS": null, "CHARGING_STATION": "No", "CHARGING_STATION_STATUS": null, "LATITUDE": 39.9714702915131, "LONGITUDE": -82.99305832842816}, "UW958": {"OBJECTID": 6701, "LOCATION": "NEIL AVE N", "SIDE_OF_STREET": "East", "BLOCKFACE": "ELEVENTH AVE - TENTH AVE", "METER_STATUS": "Operational", "TOW_AWAY_HOURS": null, "METER_TIME": 120, "HANDICAP": 0, "HOURS_OPERATION": "8 AM - 10 PM", "IN_SERVICE": 14, "VALET_HOURS": null, "RATE": " $1.50", "FOOD_SERVICE_HOURS": null, "TAXI_ZONE_HOURS": null, "CHARGING_STATION": "No", "CHARGING_STATION_STATUS": null, "LATITUDE": 39.994822027199234, "LONGITUDE": -83.01444709292437}, "EI56": {"OBJECTID": 6955, "LOCATION": "TOWN ST E", "SIDE_OF_STREET": "North", "BLOCKFACE": "DAMIAN PL - THIRD ST", "METER_STATUS": "Operational", "TOW_AWAY_HOURS": null, "METER_TIME": 180, "HANDICAP": 1, "HOURS_OPERATION": "8 AM - 10 PM", "IN_SERVICE": 14, "VALET_HOURS": null, "RATE": " $2.25", "FOOD_SERVICE_HOURS": null, "TAXI_ZONE_HOURS": null, "CHARGING_STATION": "No", "CHARGING_STATION_STATUS": null, "LATITUDE": 39.95916770567761, "LONGITUDE": -82.9976231193371}, "NG400": {"OBJECTID": 6972, "LOCATION": "MARCONI BLVD", "SIDE_OF_STREET": "East", "BLOCKFACE": "FRONT - MARCONI - LOCUST ST", "METER_STATUS": "Operational", "TOW_AWAY_HOURS": null, "METER_TIME": 180, "HANDICAP": 0, "HOURS_OPERATION": "8 AM - 10 PM", "IN_SERVICE": 14, "VALET_HOURS": null, "RATE": " $2.25", "FOOD_SERVICE_HOURS": null, "TAXI_ZONE_HOURS": null, "CHARGING_STATION": "No", "CHARGING_STATION_STATUS": null, "LATITUDE": 39.9680132569916, "LONGITUDE": -83.00523481590405}, "NG354": {"OBJECTID": 6983, "LOCATION": "MARCONI BLVD", "SIDE_OF_STREET": "East", "BLOCKFACE": "NATIONWIDE BLVD - SPRING ST", "METER_STATUS": "Operational", "TOW_AWAY_HOURS": null, "METER_TIME": 180, "HANDICAP": 0, "HOURS_OPERATION": "8 AM - 10 PM", "IN_SERVICE": 14, "VALET_HOURS": null, "RATE": " $2.25", "FOOD_SERVICE_HOURS": null, "TAXI_ZONE_HOURS": null, "CHARGING_STATION": "No", "CHARGING_STATION_STATUS": null, "LATITUDE": 39.96753436079389, "LONGITUDE": -83.00513913951573}, "NG364": {"OBJECTID": 6988, "LOCATION": "MARCONI BLVD", "SIDE_OF_STREET": "East", "BLOCKFACE": "NATIONWIDE BLVD - SPRING ST", "METER_STATUS": "Operational", "TOW_AWAY_HOURS": null, "METER_TIME": 180, "HANDICAP": 0, "HOURS_OPERATION": "8 AM - 10 PM", "IN_SERVICE": 14, "VALET_HOURS": null, "RATE": " $2.25", "FOOD_SERVICE_HOURS": null, "TAXI_ZONE_HOURS": null, "CHARGING_STATION": "No", "CHARGING_STATION_STATUS": null, "LATITUDE": 39.9677076839271, "LONGITUDE": -83.00517843239788}, "EI262": {"OBJECTID": 5925, "LOCATION": "TOWN ST E", "SIDE_OF_STREET": "North", "BLOCKFACE": "FOURTH ST - SIXTH ST", "METER_STATUS": "Operational", "TOW_AWAY_HOURS": null, "METER_TIME": 120, "HANDICAP": 0, "HOURS_OPERATION": "8 AM - 6 PM", "IN_SERVICE": 10, "VALET_HOURS": null, "RATE": " $1.50", "FOOD_SERVICE_HOURS": null, "TAXI_ZONE_HOURS": null, "CHARGING_STATION": "No", "CHARGING_STATION_STATUS": null, "LATITUDE": 39.959599604415246, "LONGITUDE": -82.99393713118415}, "EI240": {"OBJECTID": 5931, "LOCATION": "TOWN ST E", "SIDE_OF_STREET": "North", "BLOCKFACE": "FOURTH ST - SIXTH ST", "METER_STATUS": "Operational", "TOW_AWAY_HOURS": null, "METER_TIME": 120, "HANDICAP": 0, "HOURS_OPERATION": "8 AM - 6 PM", "IN_SERVICE": 10, "VALET_HOURS": null, "RATE": " $1.50", "FOOD_SERVICE_HOURS": null, "TAXI_ZONE_HOURS": null, "CHARGING_STATION": "No", "CHARGING_STATION_STATUS": null, "LATITUDE": 39.95954975618117, "LONGITUDE": -82.99437850584916}, "EI226": {"OBJECTID": 5936, "LOCATION": "TOWN ST E", "SIDE_OF_STREET": "North", "BLOCKFACE": "FOURTH ST - SIXTH ST", "METER_STATUS": "Operational", "TOW_AWAY_HOURS": null, "METER_TIME": 120, "HANDICAP": 0, "HOURS_OPERATION": "8 AM - 6 PM", "IN_SERVICE": 10, "VALET_HOURS": null, "RATE": " $1.50", "FOOD_SERVICE_HOURS": null, "TAXI_ZONE_HOURS": null, "CHARGING_STATION": "No", "CHARGING_STATION_STATUS": null, "LATITUDE": 39.959514209904356, "LONGITUDE": -82.99468778647757}, "EI218": {"OBJECTID": 5941, "LOCATION": "TOWN ST E", "SIDE_OF_STREET": "North", "BLOCKFACE": "FOURTH ST - SIXTH ST", "METER_STATUS": "Operational", "TOW_AWAY_HOURS": null, "METER_TIME": 120, "HANDICAP": 0, "HOURS_OPERATION": "8 AM - 6 PM", "IN_SERVICE": 10, "VALET_HOURS": null, "RATE": " $1.50", "FOOD_SERVICE_HOURS": null, "TAXI_ZONE_HOURS": null, "CHARGING_STATION": "No", "CHARGING_STATION_STATUS": null, "LATITUDE": 39.959488697351055, "LONGITUDE": -82.9948701430879}, "EI166": {"OBJECTID": 5947, "LOCATION": "TOWN ST E", "SIDE_OF_STREET": "North", "BLOCKFACE": "FOURTH ST - THIRD ST", "METER_STATUS": "Operational", "TOW_AWAY_HOURS": null, "METER_TIME": 180, "HANDICAP": 0, "HOURS_OPERATION": "8 AM - 10 PM", "IN_SERVICE": 14, "VALET_HOURS": null, "RATE": " $2.25", "FOOD_SERVICE_HOURS": null, "TAXI_ZONE_HOURS": null, "CHARGING_STATION": "No", "CHARGING_STATION_STATUS": null, "LATITUDE": 39.95935321310404, "LONGITUDE": -82.99604863462123}, "EI156": {"OBJECTID": 5952, "LOCATION": "TOWN ST E", "SIDE_OF_STREET": "North", "BLOCKFACE": "FOURTH ST - THIRD ST", "METER_STATUS": "Operational", "TOW_AWAY_HOURS": null, "METER_TIME": 180, "HANDICAP": 0, "HOURS_OPERATION": "8 AM - 10 PM", "IN_SERVICE": 14, "VALET_HOURS": null, "RATE": " $2.25", "FOOD_SERVICE_HOURS": null, "TAXI_ZONE_HOURS": null, "CHARGING_STATION": "No", "CHARGING_STATION_STATUS": null, "LATITUDE": 39.9593275464861, "LONGITUDE": -82.99627969594138}, "EI120": {"OBJECTID": 5958, "LOCATION": "TOWN ST E", "SIDE_OF_STREET": "North", "BLOCKFACE": "FOURTH ST - THIRD ST", "METER_STATUS": "Operational", "TOW_AWAY_HOURS": null, "METER_TIME": 180, "HANDICAP": 0, "HOURS_OPERATION": "8 AM - 10 PM", "IN_SERVICE": 14, "VALET_HOURS": null, "RATE": " $2.25", "FOOD_SERVICE_HOURS": null, "TAXI_ZONE_HOURS": null, "CHARGING_STATION": "No", "CHARGING_STATION_STATUS": null, "LATITUDE": 39.95928637391466, "LONGITUDE": -82.99664075902697}, "SE505": {"OBJECTID": 7893, "LOCATION": "CIVIC CENTER DR S", "SIDE_OF_STREET": "West", "BLOCKFACE": "MAIN ST - MOUND ST", "METER_STATUS": "Operational", "TOW_AWAY_HOURS": null, "METER_TIME": 720, "HANDICAP": 0, "HOURS_OPERATION": "6 AM - 10 PM", "IN_SERVICE": 16, "VALET_HOURS": null, "RATE": " $4.80", "FOOD_SERVICE_HOURS": null, "TAXI_ZONE_HOURS": null, "CHARGING_STATION": "No", "CHARGING_STATION_STATUS": null, "LATITUDE": 39.9552318453903, "LONGITUDE": -83.00433947252982}, "EF27": {"OBJECTID": 7898, "LOCATION": "CHERRY ST E", "SIDE_OF_STREET": "South", "BLOCKFACE": "FIESER ST - ZETTLER ST", "METER_STATUS": "Operational", "TOW_AWAY_HOURS": "4PM - 6PM", "METER_TIME": 720, "HANDICAP": 0, "HOURS_OPERATION": "6 AM - 6 PM", "IN_SERVICE": 12, "VALET_HOURS": null, "RATE": " $4.80", "FOOD_SERVICE_HOURS": null, "TAXI_ZONE_HOURS": null, "CHARGING_STATION": "No", "CHARGING_STATION_STATUS": null, "LATITUDE": 39.95737172099711, "LONGITUDE": -82.99434291872815}, "NW174": {"OBJECTID": 7904, "LOCATION": "WASHINGTON AVE N", "SIDE_OF_STREET": "East", "BLOCKFACE": "BOONE ST - LONG ST", "METER_STATUS": "Operational", "TOW_AWAY_HOURS": null, "METER_TIME": 720, "HANDICAP": 0, "HOURS_OPERATION": "6 AM - 10 PM", "IN_SERVICE": 16, "VALET_HOURS": null, "RATE": " $4.80", "FOOD_SERVICE_HOURS": null, "TAXI_ZONE_HOURS": null, "CHARGING_STATION": "No", "CHARGING_STATION_STATUS": null, "LATITUDE": 39.96625999258536, "LONGITUDE": -82.98749333384556}, "NW100": {"OBJECTID": 7909, "LOCATION": "WASHINGTON AVE N", "SIDE_OF_STREET": "East", "BLOCKFACE": "ELM ST - HUTTON ST", "METER_STATUS": "Operational", "TOW_AWAY_HOURS": null, "METER_TIME": 720, "HANDICAP": 0, "HOURS_OPERATION": "6 AM - 10 PM", "IN_SERVICE": 16, "VALET_HOURS": null, "RATE": " $4.80", "FOOD_SERVICE_HOURS": null, "TAXI_ZONE_HOURS": null, "CHARGING_STATION": "No", "CHARGING_STATION_STATUS": null, "LATITUDE": 39.96506422656639, "LONGITUDE": -82.98726283136115}, "SW6": {"OBJECTID": 7915, "LOCATION": "WASHINGTON AVE S", "SIDE_OF_STREET": "East", "BLOCKFACE": "CAPITAL ST - OAK ST", "METER_STATUS": "Operational", "TOW_AWAY_HOURS": "4PM - 6PM", "METER_TIME": 120, "HANDICAP": 0, "HOURS_OPERATION": "8 AM - 4 PM", "IN_SERVICE": 8, "VALET_HOURS": null, "RATE": " $1.50", "FOOD_SERVICE_HOURS": null, "TAXI_ZONE_HOURS": null, "CHARGING_STATION": "No", "CHARGING_STATION_STATUS": null, "LATITUDE": 39.96278978757954, "LONGITUDE": -82.98682669857787}, "EA218": {"OBJECTID": 7920, "LOCATION": "FULTON ST E", "SIDE_OF_STREET": "North", "BLOCKFACE": "FIFTH ST - FOURTH ST", "METER_STATUS": "Meter & Post Removed", "TOW_AWAY_HOURS": "4PM - 6PM", "METER_TIME": 720, "HANDICAP": 0, "HOURS_OPERATION": "6 AM - 6 PM", "IN_SERVICE": 12, "VALET_HOURS": null, "RATE": " $4.80", "FOOD_SERVICE_HOURS": null, "TAXI_ZONE_HOURS": null, "CHARGING_STATION": "No", "CHARGING_STATION_STATUS": null, "LATITUDE": 39.95419753030228, "LONGITUDE": -82.99328207253154}, "EA200": {"OBJECTID": 7925, "LOCATION": "FULTON ST E", "SIDE_OF_STREET": "North", "BLOCKFACE": "FIFTH ST - FOURTH ST", "METER_STATUS": "Meter & Post Removed", "TOW_AWAY_HOURS": "4PM - 6PM", "METER_TIME": 720, "HANDICAP": 0, "HOURS_OPERATION": "6 AM - 6 PM", "IN_SERVICE": 12, "VALET_HOURS": null, "RATE": " $4.80", "FOOD_SERVICE_HOURS": null, "TAXI_ZONE_HOURS": null, "CHARGING_STATION": "No", "CHARGING_STATION_STATUS": null, "LATITUDE": 39.954106254795235, "LONGITUDE": -82.99408981496825}, "ER605": {"OBJECTID": 5658, "LOCATION": "LONG ST E", "SIDE_OF_STREET": "South", "BLOCKFACE": "EVERETT AL - ELEVENTH ST", "METER_STATUS": "Meter & Post Removed", "TOW_AWAY_HOURS": null, "METER_TIME": 360, "HANDICAP": 0, "HOURS_OPERATION": "8 AM - 10 PM", "IN_SERVICE": 14, "VALET_HOURS": null, "RATE": " $4.50", "FOOD_SERVICE_HOURS": null, "TAXI_ZONE_HOURS": null, "CHARGING_STATION": "No", "CHARGING_STATION_STATUS": null, "LATITUDE": 39.96656882157631, "LONGITUDE": -82.98665512910027}, "EG580": {"OBJECTID": 5247, "LOCATION": "RICH ST E", "SIDE_OF_STREET": "North", "BLOCKFACE": "GRANT AVE - WASHINGTON AVE", "METER_STATUS": "Operational", "TOW_AWAY_HOURS": null, "METER_TIME": 720, "HANDICAP": 0, "HOURS_OPERATION": "6 AM - 6 PM", "IN_SERVICE": null, "VALET_HOURS": null, "RATE": " $4.80", "FOOD_SERVICE_HOURS": null, "TAXI_ZONE_HOURS": null, "CHARGING_STATION": "No", "CHARGING_STATION_STATUS": null, "LATITUDE": 39.959023274424936, "LONGITUDE": -82.98682010022387}, "EG558": {"OBJECTID": 5253, "LOCATION": "RICH ST E", "SIDE_OF_STREET": "North", "BLOCKFACE": "GRANT AVE - WASHINGTON AVE", "METER_STATUS": "Operational", "TOW_AWAY_HOURS": null, "METER_TIME": 180, "HANDICAP": 0, "HOURS_OPERATION": "10 AM - 6 PM", "IN_SERVICE": null, "VALET_HOURS": null, "RATE": " $2.25", "FOOD_SERVICE_HOURS": null, "TAXI_ZONE_HOURS": null, "CHARGING_STATION": "No", "CHARGING_STATION_STATUS": null, "LATITUDE": 39.95892590749266, "LONGITUDE": -82.98770221940522}, "EG542": {"OBJECTID": 5258, "LOCATION": "RICH ST E", "SIDE_OF_STREET": "North", "BLOCKFACE": "GRANT AVE - WASHINGTON AVE", "METER_STATUS": "Operational", "TOW_AWAY_HOURS": null, "METER_TIME": 180, "HANDICAP": 0, "HOURS_OPERATION": "10 AM - 6 PM", "IN_SERVICE": null, "VALET_HOURS": null, "RATE": " $2.25", "FOOD_SERVICE_HOURS": null, "TAXI_ZONE_HOURS": null, "CHARGING_STATION": "No", "CHARGING_STATION_STATUS": null, "LATITUDE": 39.958861216069046, "LONGITUDE": -82.98832098436459}, "EG532": {"OBJECTID": 5263, "LOCATION": "RICH ST E", "SIDE_OF_STREET": "North", "BLOCKFACE": "GRANT AVE - WASHINGTON AVE", "METER_STATUS": "Operational", "TOW_AWAY_HOURS": null, "METER_TIME": 180, "HANDICAP": 0, "HOURS_OPERATION": "10 AM - 6 PM", "IN_SERVICE": null, "VALET_HOURS": null, "RATE": " $2.25", "FOOD_SERVICE_HOURS": null, "TAXI_ZONE_HOURS": null, "CHARGING_STATION": "No", "CHARGING_STATION_STATUS": null, "LATITUDE": 39.958813765753696, "LONGITUDE": -82.98872538654734}, "EG512": {"OBJECTID": 5269, "LOCATION": "RICH ST E", "SIDE_OF_STREET": "North", "BLOCKFACE": "GRANT AVE - WASHINGTON AVE", "METER_STATUS": "Operational", "TOW_AWAY_HOURS": null, "METER_TIME": 720, "HANDICAP": 0, "HOURS_OPERATION": "6 AM - 6 PM", "IN_SERVICE": null, "VALET_HOURS": null, "RATE": " $4.80", "FOOD_SERVICE_HOURS": null, "TAXI_ZONE_HOURS": null, "CHARGING_STATION": "No", "CHARGING_STATION_STATUS": null, "LATITUDE": 39.95872879196691, "LONGITUDE": -82.9894293714869}, "EG502": {"OBJECTID": 5274, "LOCATION": "RICH ST E", "SIDE_OF_STREET": "North", "BLOCKFACE": "GRANT AVE - WASHINGTON AVE", "METER_STATUS": "Operational", "TOW_AWAY_HOURS": null, "METER_TIME": 720, "HANDICAP": 0, "HOURS_OPERATION": "6 AM - 6 PM", "IN_SERVICE": null, "VALET_HOURS": null, "RATE": " $4.80", "FOOD_SERVICE_HOURS": null, "TAXI_ZONE_HOURS": null, "CHARGING_STATION": "No", "CHARGING_STATION_STATUS": null, "LATITUDE": 39.95868431129325, "LONGITUDE": -82.98984251940472}, "EG324": {"OBJECTID": 5280, "LOCATION": "RICH ST E", "SIDE_OF_STREET": "North", "BLOCKFACE": "FIFTH ST - GRANT AVE", "METER_STATUS": "Operational", "TOW_AWAY_HOURS": null, "METER_TIME": 720, "HANDICAP": 0, "HOURS_OPERATION": "6 AM - 6 PM", "IN_SERVICE": 12, "VALET_HOURS": null, "RATE": " $4.80", "FOOD_SERVICE_HOURS": null, "TAXI_ZONE_HOURS": null, "CHARGING_STATION": "No", "CHARGING_STATION_STATUS": null, "LATITUDE": 39.95851339387275, "LONGITUDE": -82.99146023743955}, "EX45": {"OBJECTID": 5998, "LOCATION": "NATIONWIDE BLVD E", "SIDE_OF_STREET": "South", "BLOCKFACE": "HIGH ST - THIRD ST", "METER_STATUS": "Meter & Post Removed", "TOW_AWAY_HOURS": null, "METER_TIME": 180, "HANDICAP": 0, "HOURS_OPERATION": "8 AM - 10 PM", "IN_SERVICE": 14, "VALET_HOURS": null, "RATE": " $2.25", "FOOD_SERVICE_HOURS": null, "TAXI_ZONE_HOURS": null, "CHARGING_STATION": "No", "CHARGING_STATION_STATUS": null, "LATITUDE": 39.96897733867394, "LONGITUDE": -82.99935680724843}, "EX153": {"OBJECTID": 6004, "LOCATION": "NATIONWIDE BLVD E", "SIDE_OF_STREET": "South", "BLOCKFACE": "THIRD ST - FOURTH ST", "METER_STATUS": "Operational", "TOW_AWAY_HOURS": "4PM - 6PM", "METER_TIME": 180, "HANDICAP": 0, "HOURS_OPERATION": "8AM-4PM-6PM-10PM", "IN_SERVICE": 12, "VALET_HOURS": null, "RATE": " $2.25", "FOOD_SERVICE_HOURS": null, "TAXI_ZONE_HOURS": null, "CHARGING_STATION": "No", "CHARGING_STATION_STATUS": null, "LATITUDE": 39.96882647628206, "LONGITUDE": -82.99804381168559}, "EX163": {"OBJECTID": 6009, "LOCATION": "NATIONWIDE BLVD E", "SIDE_OF_STREET": "South", "BLOCKFACE": "THIRD ST - FOURTH ST", "METER_STATUS": "Meter & Post Removed", "TOW_AWAY_HOURS": "4PM - 6PM", "METER_TIME": 180, "HANDICAP": 0, "HOURS_OPERATION": "8AM-4PM-6PM-10PM", "IN_SERVICE": 12, "VALET_HOURS": null, "RATE": " $2.25", "FOOD_SERVICE_HOURS": null, "TAXI_ZONE_HOURS": null, "CHARGING_STATION": "No", "CHARGING_STATION_STATUS": null, "LATITUDE": 39.96881548682846, "LONGITUDE": -82.99762697932434}, "EX509": {"OBJECTID": 6020, "LOCATION": "NAGHTEN ST E", "SIDE_OF_STREET": "South", "BLOCKFACE": "GRANT AVE - KELLY AL", "METER_STATUS": "Operational", "TOW_AWAY_HOURS": null, "METER_TIME": 720, "HANDICAP": 0, "HOURS_OPERATION": "6 AM - 10 PM", "IN_SERVICE": 16, "VALET_HOURS": null, "RATE": " $4.80", "FOOD_SERVICE_HOURS": null, "TAXI_ZONE_HOURS": null, "CHARGING_STATION": "No", "CHARGING_STATION_STATUS": null, "LATITUDE": 39.968574402203046, "LONGITUDE": -82.99152675999412}, "EX304": {"OBJECTID": 6025, "LOCATION": "NAGHTEN ST E", "SIDE_OF_STREET": "North", "BLOCKFACE": "FIFTH ST - NEILSTON ST", "METER_STATUS": "Operational", "TOW_AWAY_HOURS": null, "METER_TIME": 720, "HANDICAP": 0, "HOURS_OPERATION": "6 AM - 10 PM", "IN_SERVICE": 16, "VALET_HOURS": null, "RATE": " $4.80", "FOOD_SERVICE_HOURS": null, "TAXI_ZONE_HOURS": null, "CHARGING_STATION": "No", "CHARGING_STATION_STATUS": null, "LATITUDE": 39.96883240616674, "LONGITUDE": -82.99561408346182}, "EY508": {"OBJECTID": 6031, "LOCATION": "MT VERNON AVE E", "SIDE_OF_STREET": "North", "BLOCKFACE": "CLEVELAND AVE - GRANT AVE", "METER_STATUS": "Operational", "TOW_AWAY_HOURS": null, "METER_TIME": 720, "HANDICAP": 0, "HOURS_OPERATION": "6 AM - 10 PM", "IN_SERVICE": 16, "VALET_HOURS": null, "RATE": " $4.80", "FOOD_SERVICE_HOURS": null, "TAXI_ZONE_HOURS": null, "CHARGING_STATION": "No", "CHARGING_STATION_STATUS": null, "LATITUDE": 39.96935012516592, "LONGITUDE": -82.99154758227328}, "K1014": {"OBJECTID": 9135, "LOCATION": "HIGH ST N", "SIDE_OF_STREET": "East", "BLOCKFACE": "FIFTH AVE - SIXTH AVE", "METER_STATUS": "Operational", "TOW_AWAY_HOURS": "0", "METER_TIME": 180, "HANDICAP": 0, "HOURS_OPERATION": "8 AM - 10 PM", "IN_SERVICE": 14, "VALET_HOURS": null, "RATE": " $2.25", "FOOD_SERVICE_HOURS": null, "TAXI_ZONE_HOURS": null, "CHARGING_STATION": "No", "CHARGING_STATION_STATUS": null, "LATITUDE": 39.98847390097542, "LONGITUDE": -83.00569154288135}, "K1013": {"OBJECTID": 9140, "LOCATION": "HIGH ST N", "SIDE_OF_STREET": "West", "BLOCKFACE": "FIFTH AVE - SIXTH AVE", "METER_STATUS": "Operational", "TOW_AWAY_HOURS": "0", "METER_TIME": 180, "HANDICAP": 0, "HOURS_OPERATION": "8 AM - 10 PM", "IN_SERVICE": 14, "VALET_HOURS": null, "RATE": " $2.25", "FOOD_SERVICE_HOURS": null, "TAXI_ZONE_HOURS": null, "CHARGING_STATION": "No", "CHARGING_STATION_STATUS": null, "LATITUDE": 39.98773474723019, "LONGITUDE": -83.00573269503921}, "K1009": {"OBJECTID": 9145, "LOCATION": "HIGH ST N", "SIDE_OF_STREET": "West", "BLOCKFACE": "FIFTH AVE - SIXTH AVE", "METER_STATUS": "Operational", "TOW_AWAY_HOURS": "0", "METER_TIME": 180, "HANDICAP": 0, "HOURS_OPERATION": "8 AM - 10 PM", "IN_SERVICE": 14, "VALET_HOURS": null, "RATE": " $2.25", "FOOD_SERVICE_HOURS": null, "TAXI_ZONE_HOURS": null, "CHARGING_STATION": "No", "CHARGING_STATION_STATUS": null, "LATITUDE": 39.987606077769186, "LONGITUDE": -83.00570590320915}, "SI503": {"OBJECTID": 9151, "LOCATION": "FRONT ST S", "SIDE_OF_STREET": "West", "BLOCKFACE": "MAIN ST - NOBLE ST", "METER_STATUS": "Operational", "TOW_AWAY_HOURS": "None", "METER_TIME": 120, "HANDICAP": 0, "HOURS_OPERATION": "8 AM - 10 PM", "IN_SERVICE": 14, "VALET_HOURS": null, "RATE": " $1.50", "FOOD_SERVICE_HOURS": null, "TAXI_ZONE_HOURS": null, "CHARGING_STATION": "No", "CHARGING_STATION_STATUS": null, "LATITUDE": 39.9557045028081, "LONGITUDE": -83.00129612863887}, "WR8": {"OBJECTID": 9156, "LOCATION": "LONG ST W", "SIDE_OF_STREET": "North", "BLOCKFACE": "WALL ST - HIGH ST", "METER_STATUS": "Operational", "TOW_AWAY_HOURS": null, "METER_TIME": 180, "HANDICAP": 0, "HOURS_OPERATION": "8 AM - 10 PM", "IN_SERVICE": 14, "VALET_HOURS": null, "RATE": " $2.25", "FOOD_SERVICE_HOURS": null, "TAXI_ZONE_HOURS": null, "CHARGING_STATION": "No", "CHARGING_STATION_STATUS": null, "LATITUDE": 39.9649557788389, "LONGITUDE": -83.00181543786799}, "EC109": {"OBJECTID": 6185, "LOCATION": "MOUND ST E", "SIDE_OF_STREET": "South", "BLOCKFACE": "FOURTH ST - THIRD ST", "METER_STATUS": "Meter & Post Removed", "TOW_AWAY_HOURS": "7AM - 9AM", "METER_TIME": 720, "HANDICAP": 0, "HOURS_OPERATION": "6 AM - 10 PM", "IN_SERVICE": 16, "VALET_HOURS": null, "RATE": " $4.80", "FOOD_SERVICE_HOURS": null, "TAXI_ZONE_HOURS": null, "CHARGING_STATION": "No", "CHARGING_STATION_STATUS": null, "LATITUDE": 39.95508847200171, "LONGITUDE": -82.99606633700276}, "EC121": {"OBJECTID": 6191, "LOCATION": "MOUND ST E", "SIDE_OF_STREET": "South", "BLOCKFACE": "FOURTH ST - THIRD ST", "METER_STATUS": "Meter & Post Removed", "TOW_AWAY_HOURS": "7AM - 9AM", "METER_TIME": 120, "HANDICAP": 0, "HOURS_OPERATION": "8 AM - 6 PM", "IN_SERVICE": 10, "VALET_HOURS": null, "RATE": " $1.50", "FOOD_SERVICE_HOURS": null, "TAXI_ZONE_HOURS": null, "CHARGING_STATION": "No", "CHARGING_STATION_STATUS": null, "LATITUDE": 39.95518033926522, "LONGITUDE": -82.99526499616755}, "EC203": {"OBJECTID": 6196, "LOCATION": "MOUND ST E", "SIDE_OF_STREET": "South", "BLOCKFACE": "FIFTH ST - FOURTH ST", "METER_STATUS": "Operational", "TOW_AWAY_HOURS": null, "METER_TIME": 720, "HANDICAP": 0, "HOURS_OPERATION": "6 AM - 6 PM", "IN_SERVICE": 12, "VALET_HOURS": null, "RATE": " $2.40", "FOOD_SERVICE_HOURS": null, "TAXI_ZONE_HOURS": null, "CHARGING_STATION": "No", "CHARGING_STATION_STATUS": null, "LATITUDE": 39.95527957524732, "LONGITUDE": -82.99441864149351}, "EC215": {"OBJECTID": 6202, "LOCATION": "MOUND ST E", "SIDE_OF_STREET": "South", "BLOCKFACE": "FIFTH ST - FOURTH ST", "METER_STATUS": "Operational", "TOW_AWAY_HOURS": null, "METER_TIME": 720, "HANDICAP": 0, "HOURS_OPERATION": "6 AM - 6 PM", "IN_SERVICE": 12, "VALET_HOURS": null, "RATE": " $2.40", "FOOD_SERVICE_HOURS": null, "TAXI_ZONE_HOURS": null, "CHARGING_STATION": "No", "CHARGING_STATION_STATUS": null, "LATITUDE": 39.95533442599879, "LONGITUDE": -82.99394711429446}, "EC225": {"OBJECTID": 6207, "LOCATION": "MOUND ST E", "SIDE_OF_STREET": "South", "BLOCKFACE": "FIFTH ST - FOURTH ST", "METER_STATUS": "Operational", "TOW_AWAY_HOURS": null, "METER_TIME": 720, "HANDICAP": 0, "HOURS_OPERATION": "6 AM - 6 PM", "IN_SERVICE": 12, "VALET_HOURS": null, "RATE": " $2.40", "FOOD_SERVICE_HOURS": null, "TAXI_ZONE_HOURS": null, "CHARGING_STATION": "No", "CHARGING_STATION_STATUS": null, "LATITUDE": 39.95538108473858, "LONGITUDE": -82.9935380114543}, "EC237": {"OBJECTID": 6213, "LOCATION": "MOUND ST E", "SIDE_OF_STREET": "South", "BLOCKFACE": "FIFTH ST - FOURTH ST", "METER_STATUS": "Meter & Post Removed", "TOW_AWAY_HOURS": "4PM - 6PM", "METER_TIME": 720, "HANDICAP": 0, "HOURS_OPERATION": "6 AM - 6 PM", "IN_SERVICE": 12, "VALET_HOURS": null, "RATE": " $4.80", "FOOD_SERVICE_HOURS": null, "TAXI_ZONE_HOURS": null, "CHARGING_STATION": "No", "CHARGING_STATION_STATUS": null, "LATITUDE": 39.95534873756294, "LONGITUDE": -82.99373971878028}, "EN411": {"OBJECTID": 7243, "LOCATION": "BROAD ST E", "SIDE_OF_STREET": "South", "BLOCKFACE": "GRANT AVE - SIXTH ST", "METER_STATUS": "Operational", "TOW_AWAY_HOURS": "4PM - 6PM", "METER_TIME": 120, "HANDICAP": 0, "HOURS_OPERATION": "8AM - 4PM & 6PM - 10PM", "IN_SERVICE": 12, "VALET_HOURS": null, "RATE": " $1.50", "FOOD_SERVICE_HOURS": null, "TAXI_ZONE_HOURS": null, "CHARGING_STATION": "No", "CHARGING_STATION_STATUS": null, "LATITUDE": 39.96309782976046, "LONGITUDE": -82.99202598050229}, "EN421": {"OBJECTID": 7248, "LOCATION": "BROAD ST E", "SIDE_OF_STREET": "South", "BLOCKFACE": "GRANT AVE - SIXTH ST", "METER_STATUS": "Operational", "TOW_AWAY_HOURS": "4PM - 6PM", "METER_TIME": 120, "HANDICAP": 0, "HOURS_OPERATION": "8AM - 4PM & 6PM - 10PM", "IN_SERVICE": 12, "VALET_HOURS": null, "RATE": " $1.50", "FOOD_SERVICE_HOURS": null, "TAXI_ZONE_HOURS": null, "CHARGING_STATION": "No", "CHARGING_STATION_STATUS": null, "LATITUDE": 39.96314080888184, "LONGITUDE": -82.99162713505343}, "WC125": {"OBJECTID": 9639, "LOCATION": "MOUND ST W", "SIDE_OF_STREET": "South", "BLOCKFACE": "FRONT ST - SHORT ST", "METER_STATUS": "Meter & Post Removed", "TOW_AWAY_HOURS": "7AM - 9AM", "METER_TIME": 120, "HANDICAP": 0, "HOURS_OPERATION": "8 AM - 4 PM", "IN_SERVICE": 8, "VALET_HOURS": null, "RATE": " $1.50", "FOOD_SERVICE_HOURS": null, "TAXI_ZONE_HOURS": null, "CHARGING_STATION": "No", "CHARGING_STATION_STATUS": null, "LATITUDE": 39.95440837317324, "LONGITUDE": -83.00215845348606}, "NI606": {"OBJECTID": 5116, "LOCATION": "PARK ST N", "SIDE_OF_STREET": "East", "BLOCKFACE": "SPRUCE ST - VINE ST", "METER_STATUS": "Operational", "TOW_AWAY_HOURS": null, "METER_TIME": 180, "HANDICAP": 0, "HOURS_OPERATION": "8 AM - 9 PM", "IN_SERVICE": null, "VALET_HOURS": null, "RATE": " $2.25", "FOOD_SERVICE_HOURS": null, "TAXI_ZONE_HOURS": null, "CHARGING_STATION": "No", "CHARGING_STATION_STATUS": null, "LATITUDE": 39.97200574585491, "LONGITUDE": -83.00453320040131}, "NI656": {"OBJECTID": 5122, "LOCATION": "PARK ST N", "SIDE_OF_STREET": "East", "BLOCKFACE": "SPRUCE ST - SWAN ST", "METER_STATUS": "Operational", "TOW_AWAY_HOURS": null, "METER_TIME": 180, "HANDICAP": 0, "HOURS_OPERATION": "8 AM - 10 PM", "IN_SERVICE": 14, "VALET_HOURS": null, "RATE": " $2.25", "FOOD_SERVICE_HOURS": null, "TAXI_ZONE_HOURS": null, "CHARGING_STATION": "No", "CHARGING_STATION_STATUS": null, "LATITUDE": 39.97273061988023, "LONGITUDE": -83.00448576727507}, "NG17": {"OBJECTID": 5127, "LOCATION": "MARCONI BLVD", "SIDE_OF_STREET": "West", "BLOCKFACE": "BROAD ST - LONG ST", "METER_STATUS": "Operational", "TOW_AWAY_HOURS": null, "METER_TIME": 120, "HANDICAP": 0, "HOURS_OPERATION": "8 AM - 10 PM", "IN_SERVICE": 14, "VALET_HOURS": null, "RATE": " $1.50", "FOOD_SERVICE_HOURS": null, "TAXI_ZONE_HOURS": null, "CHARGING_STATION": "No", "CHARGING_STATION_STATUS": null, "LATITUDE": 39.962793077898105, "LONGITUDE": -83.0044456453459}, "NG5": {"OBJECTID": 5133, "LOCATION": "MARCONI BLVD", "SIDE_OF_STREET": "West", "BLOCKFACE": "BROAD ST - LONG ST", "METER_STATUS": "Operational", "TOW_AWAY_HOURS": null, "METER_TIME": 120, "HANDICAP": 0, "HOURS_OPERATION": "8 AM - 10 PM", "IN_SERVICE": 14, "VALET_HOURS": null, "RATE": " $1.50", "FOOD_SERVICE_HOURS": null, "TAXI_ZONE_HOURS": null, "CHARGING_STATION": "No", "CHARGING_STATION_STATUS": null, "LATITUDE": 39.96241740021064, "LONGITUDE": -83.00436047938429}, "NG216": {"OBJECTID": 5138, "LOCATION": "MARCONI BLVD", "SIDE_OF_STREET": "East", "BLOCKFACE": "LONG ST - SPRING ST", "METER_STATUS": "Operational", "TOW_AWAY_HOURS": null, "METER_TIME": 180, "HANDICAP": 0, "HOURS_OPERATION": "9AM-4PM-6PM-10PM", "IN_SERVICE": 11, "VALET_HOURS": null, "RATE": " $2.25", "FOOD_SERVICE_HOURS": null, "TAXI_ZONE_HOURS": null, "CHARGING_STATION": "No", "CHARGING_STATION_STATUS": null, "LATITUDE": 39.9655939474785, "LONGITUDE": -83.0047858766895}, "ER604": {"OBJECTID": 5753, "LOCATION": "LONG ST E", "SIDE_OF_STREET": "North", "BLOCKFACE": "WASHINGTON AVE - JEFFERSON AVE", "METER_STATUS": "Operational", "TOW_AWAY_HOURS": null, "METER_TIME": 720, "HANDICAP": 0, "HOURS_OPERATION": "6 AM - 10 PM", "IN_SERVICE": 16, "VALET_HOURS": null, "RATE": " $4.80", "FOOD_SERVICE_HOURS": null, "TAXI_ZONE_HOURS": null, "CHARGING_STATION": "No", "CHARGING_STATION_STATUS": null, "LATITUDE": 39.9666967328392, "LONGITUDE": -82.98682491176136}, "ER614": {"OBJECTID": 5758, "LOCATION": "LONG ST E", "SIDE_OF_STREET": "North", "BLOCKFACE": "WASHINGTON AVE - JEFFERSON AVE", "METER_STATUS": "Operational", "TOW_AWAY_HOURS": null, "METER_TIME": 720, "HANDICAP": 0, "HOURS_OPERATION": "6 AM - 10 PM", "IN_SERVICE": 16, "VALET_HOURS": null, "RATE": " $4.80", "FOOD_SERVICE_HOURS": null, "TAXI_ZONE_HOURS": null, "CHARGING_STATION": "No", "CHARGING_STATION_STATUS": null, "LATITUDE": 39.9667408924504, "LONGITUDE": -82.98642660798754}, "ET456": {"OBJECTID": 5764, "LOCATION": "SPRING ST E", "SIDE_OF_STREET": "North", "BLOCKFACE": "GRANT AVE - SIXTH ST", "METER_STATUS": "Operational", "TOW_AWAY_HOURS": null, "METER_TIME": 720, "HANDICAP": 0, "HOURS_OPERATION": "6 AM - 10 PM", "IN_SERVICE": 16, "VALET_HOURS": null, "RATE": " $4.80", "FOOD_SERVICE_HOURS": null, "TAXI_ZONE_HOURS": null, "CHARGING_STATION": "No", "CHARGING_STATION_STATUS": null, "LATITUDE": 39.96720453608099, "LONGITUDE": -82.99258354659908}, "ET408": {"OBJECTID": 5769, "LOCATION": "SPRING ST E", "SIDE_OF_STREET": "North", "BLOCKFACE": "NEILSTON ST - SIXTH ST", "METER_STATUS": "Operational", "TOW_AWAY_HOURS": null, "METER_TIME": 720, "HANDICAP": 0, "HOURS_OPERATION": "6 AM - 10 PM", "IN_SERVICE": 16, "VALET_HOURS": null, "RATE": " $4.80", "FOOD_SERVICE_HOURS": null, "TAXI_ZONE_HOURS": null, "CHARGING_STATION": "No", "CHARGING_STATION_STATUS": null, "LATITUDE": 39.96712171336479, "LONGITUDE": -82.99330351467826}, "ET160": {"OBJECTID": 5775, "LOCATION": "SPRING ST E", "SIDE_OF_STREET": "North", "BLOCKFACE": "FOURTH ST - LAZELLE ST", "METER_STATUS": "Meter & Post Removed", "TOW_AWAY_HOURS": null, "METER_TIME": 720, "HANDICAP": 0, "HOURS_OPERATION": "6 AM - 6 PM", "IN_SERVICE": 12, "VALET_HOURS": null, "RATE": " $4.80", "FOOD_SERVICE_HOURS": null, "TAXI_ZONE_HOURS": null, "CHARGING_STATION": "No", "CHARGING_STATION_STATUS": null, "LATITUDE": 39.9668453032081, "LONGITUDE": -82.99726692843724}, "SI611": {"OBJECTID": 7083, "LOCATION": "FRONT ST S", "SIDE_OF_STREET": "West", "BLOCKFACE": "FULTON ST - MOUND ST", "METER_STATUS": "No Head - Paid", "TOW_AWAY_HOURS": "7AM - 9AM", "METER_TIME": 120, "HANDICAP": 0, "HOURS_OPERATION": "9 AM - 4 PM", "IN_SERVICE": 7, "VALET_HOURS": null, "RATE": " $2.40", "FOOD_SERVICE_HOURS": null, "TAXI_ZONE_HOURS": null, "CHARGING_STATION": "No", "CHARGING_STATION_STATUS": null, "LATITUDE": 39.95411496066675, "LONGITUDE": -83.00098726155598}, "SI555": {"OBJECTID": 7088, "LOCATION": "FRONT ST S", "SIDE_OF_STREET": "West", "BLOCKFACE": "MOUND ST - NOBLE ST", "METER_STATUS": "Meter & Post Removed", "TOW_AWAY_HOURS": "7AM - 9AM - 4PM - 6PM", "METER_TIME": 120, "HANDICAP": 0, "HOURS_OPERATION": "9 AM - 4 PM", "IN_SERVICE": 7, "VALET_HOURS": null, "RATE": " $1.50", "FOOD_SERVICE_HOURS": null, "TAXI_ZONE_HOURS": null, "CHARGING_STATION": "No", "CHARGING_STATION_STATUS": null, "LATITUDE": 39.954879708704894, "LONGITUDE": -83.00113725082691}, "SI403": {"OBJECTID": 7094, "LOCATION": "FRONT ST S", "SIDE_OF_STREET": "West", "BLOCKFACE": "CHERRY ST - RICH ST", "METER_STATUS": "Operational", "TOW_AWAY_HOURS": "7AM - 9AM - 4PM - 6PM", "METER_TIME": 120, "HANDICAP": 0, "HOURS_OPERATION": "9AM - 4PM & 6PM - 10PM", "IN_SERVICE": 11, "VALET_HOURS": null, "RATE": " $1.50", "FOOD_SERVICE_HOURS": null, "TAXI_ZONE_HOURS": null, "CHARGING_STATION": "No", "CHARGING_STATION_STATUS": null, "LATITUDE": 39.957017959464785, "LONGITUDE": -83.00156649981221}, "SI69": {"OBJECTID": 7105, "LOCATION": "FRONT ST S", "SIDE_OF_STREET": "West", "BLOCKFACE": "BROAD ST - TOWN ST", "METER_STATUS": "Bagged - Paid", "TOW_AWAY_HOURS": "7AM - 9AM - 4PM - 6PM", "METER_TIME": 120, "HANDICAP": 0, "HOURS_OPERATION": "9AM-4PM-6PM-10PM", "IN_SERVICE": 11, "VALET_HOURS": null, "RATE": " $1.50", "FOOD_SERVICE_HOURS": null, "TAXI_ZONE_HOURS": null, "CHARGING_STATION": "No", "CHARGING_STATION_STATUS": null, "LATITUDE": 39.95948245852953, "LONGITUDE": -83.0020246379414}, "SI11": {"OBJECTID": 7110, "LOCATION": "FRONT ST S", "SIDE_OF_STREET": "West", "BLOCKFACE": "BROAD ST - TOWN ST", "METER_STATUS": "Meter & Post Removed", "TOW_AWAY_HOURS": "7AM - 9AM - 4PM - 6PM", "METER_TIME": 180, "HANDICAP": 0, "HOURS_OPERATION": "9AM-4PM-6PM-10PM", "IN_SERVICE": 11, "VALET_HOURS": null, "RATE": " $2.25", "FOOD_SERVICE_HOURS": null, "TAXI_ZONE_HOURS": null, "CHARGING_STATION": "No", "CHARGING_STATION_STATUS": null, "LATITUDE": 39.96148069073989, "LONGITUDE": -83.00241168808788}, "B555": {"OBJECTID": 7159, "LOCATION": "FRONT ST S", "SIDE_OF_STREET": "West", "BLOCKFACE": "LIBERTY ST - SYCAMORE ST", "METER_STATUS": "Meter & Post Removed", "TOW_AWAY_HOURS": "0", "METER_TIME": 180, "HANDICAP": 0, "HOURS_OPERATION": "8 AM - 10 PM", "IN_SERVICE": 14, "VALET_HOURS": null, "RATE": " $2.25", "FOOD_SERVICE_HOURS": null, "TAXI_ZONE_HOURS": null, "CHARGING_STATION": "No", "CHARGING_STATION_STATUS": null, "LATITUDE": 39.95091280312087, "LONGITUDE": -83.00035281900148}, "EI106": {"OBJECTID": 5965, "LOCATION": "TOWN ST E", "SIDE_OF_STREET": "North", "BLOCKFACE": "FOURTH ST - THIRD ST", "METER_STATUS": "Operational", "TOW_AWAY_HOURS": null, "METER_TIME": 180, "HANDICAP": 0, "HOURS_OPERATION": "8 AM - 10 PM", "IN_SERVICE": 14, "VALET_HOURS": null, "RATE": " $2.25", "FOOD_SERVICE_HOURS": null, "TAXI_ZONE_HOURS": null, "CHARGING_STATION": "No", "CHARGING_STATION_STATUS": null, "LATITUDE": 39.95925299339906, "LONGITUDE": -82.99697422009996}, "WX177": {"OBJECTID": 5970, "LOCATION": "NATIONWIDE BLVD W", "SIDE_OF_STREET": "South", "BLOCKFACE": "MARCONI BLVD - WEST ST", "METER_STATUS": "Meter & Post Removed", "TOW_AWAY_HOURS": null, "METER_TIME": 120, "HANDICAP": 0, "HOURS_OPERATION": "9 AM - 10 PM", "IN_SERVICE": 13, "VALET_HOURS": null, "RATE": " $1.50", "FOOD_SERVICE_HOURS": null, "TAXI_ZONE_HOURS": null, "CHARGING_STATION": "No", "CHARGING_STATION_STATUS": null, "LATITUDE": 39.96833459263234, "LONGITUDE": -83.00687211868302}, "NS109": {"OBJECTID": 6403, "LOCATION": "SIXTH ST N", "SIDE_OF_STREET": "West", "BLOCKFACE": "GAY ST - LONG ST", "METER_STATUS": "Operational", "TOW_AWAY_HOURS": "None", "METER_TIME": 720, "HANDICAP": 0, "HOURS_OPERATION": "6 PM - 10 PM", "IN_SERVICE": 16, "VALET_HOURS": null, "RATE": " $4.80", "FOOD_SERVICE_HOURS": null, "TAXI_ZONE_HOURS": null, "CHARGING_STATION": "No", "CHARGING_STATION_STATUS": null, "LATITUDE": 39.96513501459485, "LONGITUDE": -82.99263923354471},